[{"address":"0x6f8e1000","returntype":"void","params":[{"type":"int","size":4,"name":"elementStride","location":"Stack[0x04]","idx":0}],"name":"InvokeCallbackOnArray","paramcount":1,"ASM":"DEC EAX\nPUSH EBP\nMOV EBP,dword ptr [ESP + 0x8]\n","jumpback":"0x6f8e1006"},{"address":"0x6f8e101f","returntype":"int","params":[{"type":"char *","size":4,"name":"_Dest","location":"Stack[0x04]","idx":0},{"type":"char *","size":4,"name":"_Format","location":"Stack[0x08]","idx":1}],"name":"_sprintf","paramcount":2,"ASM":"PUSH EBP\nMOV EBP,ESP\nSUB ESP,0x20\n","jumpback":"0x6f8e1025"},{"address":"0x6f8e1077","returntype":"void","params":[{"type":"int","size":4,"name":"param_1","location":"Stack[0x04]","idx":0}],"name":"___crtExitProcess","paramcount":1,"ASM":"PUSH 0x6f8fb3cc\n","jumpback":"0x6f8e107c"},{"address":"0x6f8e10a7","returntype":"undefined","params":[],"name":"FUN_6f8e10a7","paramcount":0,"ASM":"PUSH 0x8\nCALL 0x6f8e244b\n","jumpback":"0x6f8e10ae"},{"address":"0x6f8e10b0","returntype":"undefined","params":[],"name":"FUN_6f8e10b0","paramcount":0,"ASM":"PUSH 0x8\nCALL 0x6f8e2396\n","jumpback":"0x6f8e10b7"},{"address":"0x6f8e10b9","returntype":"undefined","params":[{"type":"undefined4 *","size":4,"name":"param_1","location":"Stack[0x04]","idx":0}],"name":"__initterm","paramcount":1,"ASM":"PUSH ESI\nMOV ESI,EAX\nJMP 0x6f8e10c9\n","jumpback":"0x6f8e10be"},{"address":"0x6f8e10d1","returntype":"int","params":[{"type":"int","size":4,"name":"param_1","location":"Stack[0x04]","idx":0}],"name":"__cinit","paramcount":1,"ASM":"MOV EAX,[0x6f900ce0]\n","jumpback":"0x6f8e10d6"},{"address":"0x6f8e113b","returntype":"undefined","params":[{"type":"typedef UINT uint","size":4,"name":"param_1","location":"Stack[0x04]","idx":0},{"type":"int","size":4,"name":"param_2","location":"Stack[0x08]","idx":1},{"type":"int","size":4,"name":"param_3","location":"Stack[0x0C]","idx":2}],"name":"doexit","paramcount":3,"ASM":"PUSH 0x8\nPUSH 0x6f8fb3d8\n","jumpback":"0x6f8e1142"},{"address":"0x6f8e11ea","returntype":"undefined","params":[],"name":"FUN_6f8e11ea","paramcount":0,"ASM":"CMP dword ptr [EBP + 0x10],EDI\nJZ 0x6f8e11f7\n","jumpback":"0x6f8e11ef"},{"address":"0x6f8e11fe","returntype":"void","params":[{"type":"int","size":4,"name":"_Code","location":"Stack[0x04]","idx":0}],"name":"_exit","paramcount":1,"ASM":"PUSH 0x0\nPUSH 0x0\nPUSH dword ptr [ESP + 0xc]\n","jumpback":"0x6f8e1206"},{"address":"0x6f8e120f","returntype":"undefined","params":[{"type":"undefined4","size":4,"name":"param_1","location":"Stack[0x04]","idx":0}],"name":"__exit","paramcount":1,"ASM":"PUSH 0x0\nPUSH 0x1\nPUSH dword ptr [ESP + 0xc]\n","jumpback":"0x6f8e1217"},{"address":"0x6f8e1220","returntype":"void","params":[],"name":"__cexit","paramcount":0,"ASM":"PUSH 0x1\nPUSH 0x0\nPUSH 0x0\n","jumpback":"0x6f8e1226"},{"address":"0x6f8e1230","returntype":"void *","params":[{"type":"void *","size":4,"name":"_Dst","location":"Stack[0x04]","idx":0},{"type":"void *","size":4,"name":"_Src","location":"Stack[0x08]","idx":1},{"type":"typedef size_t uint","size":4,"name":"_Size","location":"Stack[0x0C]","idx":2}],"name":"_memmove","paramcount":3,"ASM":"PUSH EBP\nMOV EBP,ESP\nPUSH EDI\nPUSH ESI\n","jumpback":"0x6f8e1235"},{"address":"0x6f8e1570","returntype":"char *","params":[{"type":"char *","size":4,"name":"_Dest","location":"Stack[0x04]","idx":0},{"type":"char *","size":4,"name":"_Source","location":"Stack[0x08]","idx":1},{"type":"typedef size_t uint","size":4,"name":"_Count","location":"Stack[0x0C]","idx":2}],"name":"_strncpy","paramcount":3,"ASM":"MOV ECX,dword ptr [ESP + 0xc]\nPUSH EDI\n","jumpback":"0x6f8e1575"},{"address":"0x6f8e1694","returntype":"int","params":[{"type":"char *","size":4,"name":"_Str1","location":"Stack[0x04]","idx":0},{"type":"char *","size":4,"name":"_Str2","location":"Stack[0x08]","idx":1}],"name":"__stricmp","paramcount":2,"ASM":"PUSH EBP\nMOV EBP,ESP\nPUSH ECX\nPUSH EBX\n","jumpback":"0x6f8e1699"},{"address":"0x6f8e16fd","returntype":"undefined4","params":[{"type":"undefined4","size":4,"name":"param_1","location":"Stack[0x04]","idx":0},{"type":"int","size":4,"name":"param_2","location":"Stack[0x08]","idx":1}],"name":"__CRT_INIT@12","paramcount":2,"ASM":"PUSH EBP\nMOV EBP,ESP\nMOV EAX,dword ptr [EBP + 0xc]\n","jumpback":"0x6f8e1703"},{"address":"0x6f8e187e","returntype":"int","params":[{"type":"undefined4","size":4,"name":"param_1","location":"Stack[0x04]","idx":0},{"type":"int","size":4,"name":"param_2","location":"Stack[0x08]","idx":1},{"type":"undefined4","size":4,"name":"param_3","location":"Stack[0x0C]","idx":2}],"name":"entry","paramcount":3,"ASM":"PUSH 0xc\nPUSH 0x6f8fb3e8\n","jumpback":"0x6f8e1885"},{"address":"0x6f8e1962","returntype":"void","params":[{"type":"int","size":4,"name":"param_1","location":"Stack[0x04]","idx":0}],"name":"__amsg_exit","paramcount":1,"ASM":"MOV EAX,[0x6f901034]\n","jumpback":"0x6f8e1967"},{"address":"0x6f8e1995","returntype":"int","params":[{"type":"int","size":4,"name":"_Ch","location":"Stack[0x04]","idx":0},{"type":"FILE *","size":4,"name":"_File","location":"Stack[0x08]","idx":1}],"name":"__flsbuf","paramcount":2,"ASM":"PUSH EBP\nMOV EBP,ESP\nPUSH EBX\nPUSH ESI\n","jumpback":"0x6f8e199a"},{"address":"0x6f8e1aae","returntype":"undefined","params":[],"name":"write_char","paramcount":0,"ASM":"TEST byte ptr [ECX + 0xc],0x40\nJZ 0x6f8e1aba\n","jumpback":"0x6f8e1ab4"},{"address":"0x6f8e1ae1","returntype":"undefined","params":[{"type":"undefined4","size":4,"name":"param_1","location":"Stack[0x04]","idx":0},{"type":"int","size":4,"name":"param_2","location":"Stack[0x08]","idx":1}],"name":"write_multi_char","paramcount":2,"ASM":"PUSH EBP\nMOV EBP,ESP\nPUSH ESI\nMOV ESI,EAX\n","jumpback":"0x6f8e1ae7"},{"address":"0x6f8e1b05","returntype":"undefined","params":[{"type":"int","size":4,"name":"param_1","location":"Stack[0x04]","idx":0}],"name":"write_string","paramcount":1,"ASM":"TEST byte ptr [EDI + 0xc],0x40\nPUSH EBX\n","jumpback":"0x6f8e1b0a"},{"address":"0x6f8e1b3c","returntype":"undefined","params":[{"type":"undefined4","size":4,"name":"param_1","location":"Stack[0x04]","idx":0},{"type":"byte *","size":4,"name":"param_2","location":"Stack[0x08]","idx":1},{"type":"wchar_t *","size":4,"name":"param_3","location":"Stack[0x0C]","idx":2}],"name":"FUN_6f8e1b3c","paramcount":3,"ASM":"PUSH EBP\nLEA EBP,[ESP + 0xfffffe20]\n","jumpback":"0x6f8e1b44"},{"address":"0x6f8e22f8","returntype":"int","params":[],"name":"__mtinitlocks","paramcount":0,"ASM":"PUSH ESI\nPUSH EDI\nXOR ESI,ESI\nMOV EDI,0x6f901040\n","jumpback":"0x6f8e2301"},{"address":"0x6f8e2341","returntype":"void","params":[],"name":"__mtdeletelocks","paramcount":0,"ASM":"PUSH EBX\nMOV EBX,dword ptr [0x6f8fb28c]\n","jumpback":"0x6f8e2348"},{"address":"0x6f8e2396","returntype":"undefined","params":[{"type":"int","size":4,"name":"param_1","location":"Stack[0x04]","idx":0}],"name":"__unlock","paramcount":1,"ASM":"PUSH EBP\nMOV EBP,ESP\nMOV EAX,dword ptr [EBP + 0x8]\n","jumpback":"0x6f8e239c"},{"address":"0x6f8e23ab","returntype":"int","params":[{"type":"int","size":4,"name":"_LockNum","location":"Stack[0x04]","idx":0}],"name":"__mtinitlocknum","paramcount":1,"ASM":"PUSH 0x8\nPUSH 0x6f8fb470\n","jumpback":"0x6f8e23b2"},{"address":"0x6f8e2442","returntype":"void","params":[],"name":"UnlockCriticalSection10","paramcount":0,"ASM":"PUSH 0xa\nCALL 0x6f8e2396\n","jumpback":"0x6f8e2449"},{"address":"0x6f8e244b","returntype":"void","params":[{"type":"int","size":4,"name":"_File","location":"Stack[0x04]","idx":0}],"name":"__lock","paramcount":1,"ASM":"PUSH EBP\nMOV EBP,ESP\nMOV EAX,dword ptr [EBP + 0x8]\n","jumpback":"0x6f8e2451"},{"address":"0x6f8e247c","returntype":"undefined","params":[],"name":"__onexit_lk","paramcount":0,"ASM":"PUSH ESI\nPUSH dword ptr [0x6f9abc50]\n","jumpback":"0x6f8e2483"},{"address":"0x6f8e24fc","returntype":"undefined4","params":[],"name":"___onexitinit","paramcount":0,"ASM":"PUSH 0x80\n","jumpback":"0x6f8e2501"},{"address":"0x6f8e2524","returntype":"typedef _onexit_t _onexit_t *","params":[{"type":"typedef _onexit_t _onexit_t *","size":4,"name":"_Func","location":"Stack[0x04]","idx":0}],"name":"__onexit","paramcount":1,"ASM":"PUSH 0xc\nPUSH 0x6f8fb480\n","jumpback":"0x6f8e252b"},{"address":"0x6f8e2556","returntype":"void","params":[],"name":"UnlockCriticalSectionAtExit","paramcount":0,"ASM":"CALL 0x6f8e10b0\n","jumpback":"0x6f8e255b"},{"address":"0x6f8e255c","returntype":"int","params":[{"type":"_func_4879 *","size":4,"name":"param_1","location":"Stack[0x04]","idx":0}],"name":"_atexit","paramcount":1,"ASM":"PUSH dword ptr [ESP + 0x4]\nCALL 0x6f8e2524\n","jumpback":"0x6f8e2565"},{"address":"0x6f8e256e","returntype":"undefined","params":[],"name":"__RTC_Initialize","paramcount":0,"ASM":"PUSH 0xc\nPUSH 0x6f8fb490\n","jumpback":"0x6f8e2575"},{"address":"0x6f8e25f8","returntype":"undefined","params":[{"type":"undefined4","size":4,"name":"param_1","location":"Stack[0x04]","idx":0},{"type":"int","size":4,"name":"param_2","location":"Stack[0x08]","idx":1}],"name":"__SEH_prolog","paramcount":2,"ASM":"PUSH 0x6f8e264c\n","jumpback":"0x6f8e25fd"},{"address":"0x6f8e2633","returntype":"undefined","params":[],"name":"__SEH_epilog","paramcount":0,"ASM":"MOV ECX,dword ptr [EBP + -0x10]\nMOV dword ptr FS:[0x0],ECX\n","jumpback":"0x6f8e263d"},{"address":"0x6f8e2732","returntype":"void","params":[{"type":"void *","size":4,"name":"pExceptionFrame","location":"Stack[0x04]","idx":0}],"name":"UnwindExceptionFrame","paramcount":1,"ASM":"PUSH EBP\nMOV ECX,dword ptr [ESP + 0x8]\n","jumpback":"0x6f8e2737"},{"address":"0x6f8e274d","returntype":"uint","params":[{"type":"void *","size":4,"name":"this","location":"ECX","idx":0},{"type":"int","size":4,"name":"param_1","location":"Stack[0x04]","idx":1},{"type":"uint","size":4,"name":"param_2","location":"Stack[0x08]","idx":2}],"name":"___tolower_mt","paramcount":3,"ASM":"PUSH EBP\nMOV EBP,ESP\nPUSH ECX\nPUSH EBX\n","jumpback":"0x6f8e2752"},{"address":"0x6f8e2815","returntype":"int","params":[{"type":"int","size":4,"name":"_C","location":"Stack[0x04]","idx":0}],"name":"_tolower","paramcount":1,"ASM":"CALL 0x6f8e2a93\n","jumpback":"0x6f8e281a"},{"address":"0x6f8e2840","returntype":"int","params":[{"type":"char *","size":4,"name":"_Str1","location":"Stack[0x04]","idx":0},{"type":"char *","size":4,"name":"_Str2","location":"Stack[0x08]","idx":1}],"name":"___ascii_stricmp","paramcount":2,"ASM":"PUSH EBP\nMOV EBP,ESP\nPUSH EDI\nPUSH ESI\n","jumpback":"0x6f8e2845"},{"address":"0x6f8e288e","returntype":"undefined","params":[{"type":"void *","size":4,"name":"param_1","location":"Stack[0x04]","idx":0}],"name":"___freetlocinfo","paramcount":1,"ASM":"PUSH ESI\nMOV ESI,dword ptr [ESP + 0x8]\n","jumpback":"0x6f8e2893"},{"address":"0x6f8e295e","returntype":"int","params":[],"name":"___updatetlocinfo_lk","paramcount":0,"ASM":"PUSH ESI\nCALL 0x6f8e2a93\n","jumpback":"0x6f8e2964"},{"address":"0x6f8e2a1f","returntype":"typedef pthreadlocinfo threadlocaleinfostruct *","params":[],"name":"___updatetlocinfo","paramcount":0,"ASM":"PUSH 0xc\nPUSH 0x6f8fb630\n","jumpback":"0x6f8e2a26"},{"address":"0x6f8e2a51","returntype":"undefined","params":[],"name":"FUN_6f8e2a51","paramcount":0,"ASM":"PUSH 0xc\nCALL 0x6f8e2396\n","jumpback":"0x6f8e2a58"},{"address":"0x6f8e2a5a","returntype":"void","params":[],"name":"TlsAllocNoReturn","paramcount":0,"ASM":"CALL dword ptr [0x6f8fb280]\n","jumpback":"0x6f8e2a60"},{"address":"0x6f8e2a63","returntype":"void","params":[],"name":"__mtterm","paramcount":0,"ASM":"MOV EAX,[0x6f8ff304]\n","jumpback":"0x6f8e2a68"},{"address":"0x6f8e2a80","returntype":"void","params":[{"type":"typedef _ptiddata _tiddata *","size":4,"name":"_Ptd","location":"Stack[0x04]","idx":0},{"type":"typedef pthreadlocinfo threadlocaleinfostruct *","size":4,"name":"_Locale","location":"Stack[0x08]","idx":1}],"name":"__initptd","paramcount":2,"ASM":"MOV EAX,dword ptr [ESP + 0x4]\nMOV dword ptr [EAX + 0x54],0x6f8ff330\n","jumpback":"0x6f8e2a8b"},{"address":"0x6f8e2a93","returntype":"typedef _ptiddata _tiddata *","params":[],"name":"__getptd","paramcount":0,"ASM":"PUSH EBX\nPUSH ESI\nCALL dword ptr [0x6f8fb278]\n","jumpback":"0x6f8e2a9b"},{"address":"0x6f8e2b04","returntype":"undefined","params":[{"type":"void *","size":4,"name":"param_1","location":"Stack[0x04]","idx":0}],"name":"__freefls@4","paramcount":1,"ASM":"PUSH 0x10\nPUSH 0x6f8fb640\n","jumpback":"0x6f8e2b0b"},{"address":"0x6f8e2c36","returntype":"void","params":[],"name":"UnlockCriticalSection13","paramcount":0,"ASM":"PUSH 0xd\nCALL 0x6f8e2396\n","jumpback":"0x6f8e2c3d"},{"address":"0x6f8e2c42","returntype":"void","params":[],"name":"UnlockCriticalSection12","paramcount":0,"ASM":"PUSH 0xc\nCALL 0x6f8e2396\n","jumpback":"0x6f8e2c49"},{"address":"0x6f8e2c4b","returntype":"void","params":[{"type":"typedef _ptiddata _tiddata *","size":4,"name":"_Ptd","location":"Stack[0x04]","idx":0}],"name":"__freeptd","paramcount":1,"ASM":"MOV ECX,dword ptr [0x6f8ff304]\n","jumpback":"0x6f8e2c51"},{"address":"0x6f8e2c7a","returntype":"int","params":[],"name":"__mtinit","paramcount":0,"ASM":"CALL 0x6f8e22f8\n","jumpback":"0x6f8e2c7f"},{"address":"0x6f8e2d69","returntype":"void","params":[{"type":"void *","size":4,"name":"_Memory","location":"Stack[0x04]","idx":0}],"name":"_free","paramcount":1,"ASM":"PUSH 0xc\nPUSH 0x6f8fb698\n","jumpback":"0x6f8e2d70"},{"address":"0x6f8e2dbc","returntype":"void","params":[],"name":"UnlockHeapCriticalSection","paramcount":0,"ASM":"PUSH 0x4\nCALL 0x6f8e2396\n","jumpback":"0x6f8e2dc3"},{"address":"0x6f8e2dda","returntype":"void *","params":[{"type":"uint","size":4,"name":"elementCount","location":"Stack[0x04]","idx":0},{"type":"uint","size":4,"name":"elementSize","location":"Stack[0x08]","idx":1}],"name":"AllocateMemoryWithOverflowCheck","paramcount":2,"ASM":"PUSH 0x10\nPUSH 0x6f8fb6a8\n","jumpback":"0x6f8e2de1"},{"address":"0x6f8e2ea0","returntype":"void","params":[],"name":"UnlockSmallBlockHeapCriticalSection","paramcount":0,"ASM":"PUSH 0x4\nCALL 0x6f8e2396\n","jumpback":"0x6f8e2ea7"},{"address":"0x6f8e2eb1","returntype":"int","params":[],"name":"__ioinit","paramcount":0,"ASM":"SUB ESP,0x48\nPUSH EBX\nMOV EBX,0x480\n","jumpback":"0x6f8e2eba"},{"address":"0x6f8e30af","returntype":"void","params":[],"name":"__ioterm","paramcount":0,"ASM":"PUSH ESI\nPUSH EDI\nMOV ESI,0x6f9abb40\n","jumpback":"0x6f8e30b6"},{"address":"0x6f8e30fb","returntype":"int","params":[],"name":"__setenvp","paramcount":0,"ASM":"PUSH EBX\nXOR EBX,EBX\nCMP dword ptr [0x6f9abc54],EBX\n","jumpback":"0x6f8e3104"},{"address":"0x6f8e31c2","returntype":"undefined","params":[{"type":"undefined4 *","size":4,"name":"param_1","location":"Stack[0x04]","idx":0},{"type":"int *","size":4,"name":"param_2","location":"Stack[0x08]","idx":1}],"name":"parse_cmdline","paramcount":2,"ASM":"PUSH EBP\nMOV EBP,ESP\nPUSH ECX\nPUSH EBX\n","jumpback":"0x6f8e31c7"},{"address":"0x6f8e332e","returntype":"int","params":[],"name":"__setargv","paramcount":0,"ASM":"PUSH EBP\nMOV EBP,ESP\nPUSH ECX\nPUSH ECX\n","jumpback":"0x6f8e3333"},{"address":"0x6f8e33d0","returntype":"typedef LPVOID void *","params":[],"name":"___crtGetEnvironmentStringsA","paramcount":0,"ASM":"PUSH ECX\nPUSH ECX\nMOV EAX,[0x6f9012b8]\n","jumpback":"0x6f8e33d7"},{"address":"0x6f8e34f2","returntype":"undefined4","params":[],"name":"___heap_select","paramcount":0,"ASM":"CMP dword ptr [0x6f900fe4],0x2\n","jumpback":"0x6f8e34f9"},{"address":"0x6f8e350c","returntype":"int","params":[],"name":"__heap_init","paramcount":0,"ASM":"XOR EAX,EAX\nCMP dword ptr [ESP + 0x4],EAX\n","jumpback":"0x6f8e3512"},{"address":"0x6f8e355d","returntype":"void","params":[],"name":"__heap_term","paramcount":0,"ASM":"CMP dword ptr [0x6f9abb28],0x3\n","jumpback":"0x6f8e3564"},{"address":"0x6f8e35e0","returntype":"undefined","params":[],"name":"__chkstk","paramcount":0,"ASM":"CMP EAX,0x1000\n","jumpback":"0x6f8e35e5"},{"address":"0x6f8e361d","returntype":"int","params":[{"type":"ulong","size":4,"name":"_ExceptionNum","location":"Stack[0x04]","idx":0},{"type":"_EXCEPTION_POINTERS *","size":4,"name":"_ExceptionPtr","location":"Stack[0x08]","idx":1}],"name":"__XcptFilter","paramcount":2,"ASM":"PUSH EBP\nMOV EBP,ESP\nPUSH ECX\nPUSH EBX\n","jumpback":"0x6f8e3622"},{"address":"0x6f8e3781","returntype":"int","params":[{"type":"int","size":4,"name":"exceptionCode","location":"Stack[0x04]","idx":0},{"type":"_EXCEPTION_POINTERS *","size":4,"name":"pExceptionInfo","location":"Stack[0x08]","idx":1}],"name":"CppExceptionFilter","paramcount":2,"ASM":"MOV EAX,0xe06d7363\n","jumpback":"0x6f8e3786"},{"address":"0x6f8e379c","returntype":"void","params":[{"type":"int","size":4,"name":"errorCode","location":"Stack[0x04]","idx":0}],"name":"DisplayCRuntimeError","paramcount":1,"ASM":"PUSH EBP\nLEA EBP,[ESP + 0xffffff70]\n","jumpback":"0x6f8e37a4"},{"address":"0x6f8e3914","returntype":"void","params":[],"name":"__FF_MSGBANNER","paramcount":0,"ASM":"MOV EAX,[0x6f901034]\n","jumpback":"0x6f8e3919"},{"address":"0x6f8e394d","returntype":"typedef DWORD ulong","params":[{"type":"uint","size":4,"name":"param_1","location":"Stack[0x04]","idx":0},{"type":"typedef LONG long","size":4,"name":"param_2","location":"Stack[0x08]","idx":1},{"type":"typedef DWORD ulong","size":4,"name":"param_3","location":"Stack[0x0C]","idx":2}],"name":"__lseek_lk","paramcount":3,"ASM":"PUSH ESI\nMOV ESI,dword ptr [ESP + 0x8]\n","jumpback":"0x6f8e3952"},{"address":"0x6f8e39c1","returntype":"long","params":[{"type":"int","size":4,"name":"_FileHandle","location":"Stack[0x04]","idx":0},{"type":"long","size":4,"name":"_Offset","location":"Stack[0x08]","idx":1},{"type":"int","size":4,"name":"_Origin","location":"Stack[0x0C]","idx":2}],"name":"__lseek","paramcount":3,"ASM":"PUSH 0xc\nPUSH 0x6f8fbab8\n","jumpback":"0x6f8e39c8"},{"address":"0x6f8e3a48","returntype":"void","params":[{"type":"int","size":4,"name":"fileHandle","location":"Stack[0x04]","idx":0}],"name":"UnlockFileHandle","paramcount":1,"ASM":"PUSH EBX\nCALL 0x6f8e69dc\n","jumpback":"0x6f8e3a4e"},{"address":"0x6f8e3a6c","returntype":"int","params":[{"type":"int","size":4,"name":"fileDescriptor","location":"Stack[0x04]","idx":0},{"type":"char *","size":4,"name":"buffer","location":"Stack[0x08]","idx":1},{"type":"uint","size":4,"name":"bytesToWrite","location":"Stack[0x0C]","idx":2}],"name":"WriteToCRTFileDescriptor","paramcount":3,"ASM":"PUSH EBP\nLEA EBP,[ESP + 0xfffffc5c]\n","jumpback":"0x6f8e3a74"},{"address":"0x6f8e3c28","returntype":"int","params":[{"type":"int","size":4,"name":"_FileHandle","location":"Stack[0x04]","idx":0},{"type":"void *","size":4,"name":"_Buf","location":"Stack[0x08]","idx":1},{"type":"uint","size":4,"name":"_MaxCharCount","location":"Stack[0x0C]","idx":2}],"name":"__write","paramcount":3,"ASM":"PUSH 0xc\nPUSH 0x6f8fbac8\n","jumpback":"0x6f8e3c2f"},{"address":"0x6f8e3caf","returntype":"void","params":[{"type":"int","size":4,"name":"fileHandle","location":"ECX","idx":0}],"name":"UnlockFileHandle","paramcount":1,"ASM":"PUSH EBX\nCALL 0x6f8e69dc\n","jumpback":"0x6f8e3cb5"},{"address":"0x6f8e3cd3","returntype":"void","params":[{"type":"FILE *","size":4,"name":"_File","location":"Stack[0x04]","idx":0}],"name":"__getbuf","paramcount":1,"ASM":"INC dword ptr [0x6f9012c0]\n","jumpback":"0x6f8e3cd9"},{"address":"0x6f8e3d17","returntype":"int","params":[{"type":"int","size":4,"name":"_FileHandle","location":"Stack[0x04]","idx":0}],"name":"__isatty","paramcount":1,"ASM":"MOV EAX,dword ptr [ESP + 0x4]\nCMP EAX,dword ptr [0x6f9abb2c]\n","jumpback":"0x6f8e3d21"},{"address":"0x6f8e3dfe","returntype":"void","params":[{"type":"FILE *","size":4,"name":"pFile","location":"Stack[0x04]","idx":0}],"name":"LockFileStream","paramcount":1,"ASM":"MOV EAX,dword ptr [ESP + 0x4]\nMOV ECX,0x6f8ff450\n","jumpback":"0x6f8e3e07"},{"address":"0x6f8e3e2d","returntype":"void","params":[{"type":"int","size":4,"name":"nLockIndex","location":"Stack[0x04]","idx":0},{"type":"FILE *","size":4,"name":"pFileStream","location":"Stack[0x08]","idx":1}],"name":"LockFileStreamHandle","paramcount":2,"ASM":"MOV EAX,dword ptr [ESP + 0x4]\nCMP EAX,0x14\n","jumpback":"0x6f8e3e34"},{"address":"0x6f8e3e50","returntype":"void","params":[{"type":"FILE *","size":4,"name":"pFile","location":"Stack[0x04]","idx":0}],"name":"UnlockFileStream","paramcount":1,"ASM":"MOV EAX,dword ptr [ESP + 0x4]\nMOV ECX,0x6f8ff450\n","jumpback":"0x6f8e3e59"},{"address":"0x6f8e3e7f","returntype":"void","params":[{"type":"int","size":4,"name":"lockIndex","location":"Stack[0x04]","idx":0},{"type":"int","size":4,"name":"pLockStructure","location":"Stack[0x08]","idx":1}],"name":"ReleaseLockByIndexOrCriticalSection","paramcount":2,"ASM":"MOV EAX,dword ptr [ESP + 0x4]\nCMP EAX,0x14\n","jumpback":"0x6f8e3e86"},{"address":"0x6f8e3eb0","returntype":"typedef size_t uint","params":[{"type":"char *","size":4,"name":"_Str","location":"Stack[0x04]","idx":0}],"name":"_strlen","paramcount":1,"ASM":"MOV ECX,dword ptr [ESP + 0x4]\nTEST ECX,0x3\n","jumpback":"0x6f8e3eba"},{"address":"0x6f8e3f3b","returntype":"void *","params":[{"type":"typedef size_t uint","size":4,"name":"_Size","location":"Stack[0x04]","idx":0}],"name":"__heap_alloc","paramcount":1,"ASM":"PUSH 0xc\nPUSH 0x6f8fbad8\n","jumpback":"0x6f8e3f42"},{"address":"0x6f8e3fad","returntype":"void","params":[],"name":"UnlockHeapLock","paramcount":0,"ASM":"PUSH 0x4\nCALL 0x6f8e2396\n","jumpback":"0x6f8e3fb4"},{"address":"0x6f8e3fb6","returntype":"void *","params":[{"type":"typedef size_t uint","size":4,"name":"_Size","location":"Stack[0x04]","idx":0},{"type":"int","size":4,"name":"_NhFlag","location":"Stack[0x08]","idx":1}],"name":"__nh_malloc","paramcount":2,"ASM":"CMP dword ptr [ESP + 0x4],-0x20\n","jumpback":"0x6f8e3fbb"},{"address":"0x6f8e3fe2","returntype":"void *","params":[{"type":"typedef size_t uint","size":4,"name":"_Size","location":"Stack[0x04]","idx":0}],"name":"_malloc","paramcount":1,"ASM":"PUSH dword ptr [0x6f901398]\n","jumpback":"0x6f8e3fe8"},{"address":"0x6f8e3ff4","returntype":"int","params":[{"type":"int","size":4,"name":"param_1","location":"Stack[0x04]","idx":0},{"type":"typedef LPSTR CHAR *","size":4,"name":"param_2","location":"Stack[0x08]","idx":1},{"type":"typedef WCHAR wchar_t","size":2,"name":"param_3","location":"Stack[0x0C]","idx":2}],"name":"___wctomb_mt","paramcount":3,"ASM":"PUSH EBP\nMOV EBP,ESP\nMOV ECX,dword ptr [EBP + 0xc]\n","jumpback":"0x6f8e3ffa"},{"address":"0x6f8e4054","returntype":"int","params":[{"type":"char *","size":4,"name":"_MbCh","location":"Stack[0x04]","idx":0},{"type":"wchar_t","size":2,"name":"_WCh","location":"Stack[0x08]","idx":1}],"name":"_wctomb","paramcount":2,"ASM":"CALL 0x6f8e2a93\n","jumpback":"0x6f8e4059"},{"address":"0x6f8e407b","returntype":"undefined","params":[],"name":"report_failure","paramcount":0,"ASM":"PUSH 0x8\nPUSH 0x6f8fbff0\n","jumpback":"0x6f8e4082"},{"address":"0x6f8e40ac","returntype":"void","params":[{"type":"uint","size":4,"name":"cookieValue","location":"ECX","idx":0}],"name":"ValidateSecurityCookie","paramcount":1,"ASM":"CMP ECX,dword ptr [0x6f8ff6f0]\n","jumpback":"0x6f8e40b2"},{"address":"0x6f8e40c0","returntype":"undefined8","params":[{"type":"uint","size":4,"name":"param_1","location":"Stack[0x04]","idx":0},{"type":"uint","size":4,"name":"param_2","location":"Stack[0x08]","idx":1},{"type":"uint","size":4,"name":"param_3","location":"Stack[0x0C]","idx":2},{"type":"uint","size":4,"name":"param_4","location":"Stack[0x10]","idx":3}],"name":"__aulldvrm","paramcount":4,"ASM":"PUSH ESI\nMOV EAX,dword ptr [ESP + 0x14]\n","jumpback":"0x6f8e40c5"},{"address":"0x6f8e4155","returntype":"undefined4","params":[{"type":"typedef LPCRITICAL_SECTION PRTL_CRITICAL_SECTION","size":4,"name":"param_1","location":"Stack[0x04]","idx":0}],"name":"___crtInitCritSecNoSpinCount@8","paramcount":1,"ASM":"PUSH dword ptr [ESP + 0x4]\nCALL dword ptr [0x6f8fb1c8]\n","jumpback":"0x6f8e415f"},{"address":"0x6f8e4165","returntype":"undefined","params":[{"type":"undefined4","size":4,"name":"param_1","location":"Stack[0x04]","idx":0},{"type":"undefined4","size":4,"name":"param_2","location":"Stack[0x08]","idx":1}],"name":"___crtInitCritSecAndSpinCount","paramcount":2,"ASM":"PUSH 0x10\nPUSH 0x6f8fc028\n","jumpback":"0x6f8e416c"},{"address":"0x6f8e41f0","returntype":"int *","params":[],"name":"GetThreadErrnoPointer","paramcount":0,"ASM":"CALL 0x6f8e2a93\n","jumpback":"0x6f8e41f5"},{"address":"0x6f8e41f9","returntype":"ulong *","params":[],"name":"GetThreadDosErrorPtr","paramcount":0,"ASM":"CALL 0x6f8e2a93\n","jumpback":"0x6f8e41fe"},{"address":"0x6f8e4202","returntype":"void","params":[{"type":"ulong","size":4,"name":"param_1","location":"Stack[0x04]","idx":0}],"name":"__dosmaperr","paramcount":1,"ASM":"PUSH ESI\nCALL 0x6f8e2a93\n","jumpback":"0x6f8e4208"},{"address":"0x6f8e4278","returntype":"undefined","params":[{"type":"typedef PVOID void *","size":4,"name":"param_1","location":"Stack[0x04]","idx":0}],"name":"__global_unwind2","paramcount":1,"ASM":"PUSH EBP\nMOV EBP,ESP\nPUSH EBX\nPUSH ESI\n","jumpback":"0x6f8e427d"},{"address":"0x6f8e42ba","returntype":"undefined","params":[{"type":"int","size":4,"name":"param_1","location":"Stack[0x04]","idx":0},{"type":"int","size":4,"name":"param_2","location":"Stack[0x08]","idx":1}],"name":"__local_unwind2","paramcount":2,"ASM":"PUSH EBX\nPUSH ESI\nPUSH EDI\nMOV EAX,dword ptr [ESP + 0x10]\n","jumpback":"0x6f8e42c1"},{"address":"0x6f8e434e","returntype":"void","params":[],"name":"SaveExceptionContext","paramcount":0,"ASM":"PUSH EBX\nPUSH ECX\nMOV EBX,0x6f8ff868\n","jumpback":"0x6f8e4355"},{"address":"0x6f8e4366","returntype":"void *","params":[{"type":"void *","size":4,"name":"pBlock","location":"Stack[0x04]","idx":0},{"type":"typedef size_t uint","size":4,"name":"newSize","location":"Stack[0x08]","idx":1}],"name":"ReallocMemory","paramcount":2,"ASM":"PUSH 0x14\nPUSH 0x6f8fc038\n","jumpback":"0x6f8e436d"},{"address":"0x6f8e44ce","returntype":"void","params":[],"name":"UnlockHeap","paramcount":0,"ASM":"PUSH 0x4\nCALL 0x6f8e2396\n","jumpback":"0x6f8e44d5"},{"address":"0x6f8e4518","returntype":"typedef size_t uint","params":[{"type":"void *","size":4,"name":"_Memory","location":"Stack[0x04]","idx":0}],"name":"__msize","paramcount":1,"ASM":"PUSH 0x10\nPUSH 0x6f8fc048\n","jumpback":"0x6f8e451f"},{"address":"0x6f8e4585","returntype":"void","params":[],"name":"UnlockHeapLock","paramcount":0,"ASM":"PUSH 0x4\nCALL 0x6f8e2396\n","jumpback":"0x6f8e458c"},{"address":"0x6f8e458e","returntype":"undefined4","params":[{"type":"void *","size":4,"name":"param_1","location":"Stack[0x04]","idx":0}],"name":"__ValidateEH3RN","paramcount":1,"ASM":"PUSH EBP\nMOV EBP,ESP\nSUB ESP,0x20\n","jumpback":"0x6f8e4594"},{"address":"0x6f8e47b7","returntype":"uint","params":[{"type":"typedef LCID DWORD","size":4,"name":"locale","location":"Stack[0x04]","idx":0},{"type":"uint","size":4,"name":"mapFlags","location":"Stack[0x08]","idx":1},{"type":"typedef LPCSTR CHAR *","size":4,"name":"sourceStr","location":"Stack[0x0C]","idx":2},{"type":"uint","size":4,"name":"sourceLen","location":"Stack[0x10]","idx":3},{"type":"typedef LPSTR CHAR *","size":4,"name":"destStr","location":"Stack[0x14]","idx":4},{"type":"int","size":4,"name":"destSize","location":"Stack[0x18]","idx":5},{"type":"typedef UINT uint","size":4,"name":"codePage","location":"Stack[0x1C]","idx":6},{"type":"int","size":4,"name":"useDefChar","location":"Stack[0x20]","idx":7}],"name":"LocaleMapString","paramcount":8,"ASM":"PUSH 0x3c\nPUSH 0x6f8fc058\n","jumpback":"0x6f8e47be"},{"address":"0x6f8e4b8d","returntype":"uint","params":[{"type":"void *","size":4,"name":"this","location":"ECX","idx":0},{"type":"int","size":4,"name":"param_1","location":"Stack[0x04]","idx":1},{"type":"int","size":4,"name":"param_2","location":"Stack[0x08]","idx":2},{"type":"uint","size":4,"name":"param_3","location":"Stack[0x0C]","idx":3}],"name":"___isctype_mt","paramcount":4,"ASM":"PUSH EBP\nMOV EBP,ESP\nPUSH ECX\nMOV EAX,dword ptr [EBP + 0xc]\n","jumpback":"0x6f8e4b94"},{"address":"0x6f8e4c04","returntype":"undefined","params":[{"type":"undefined4 *","size":4,"name":"param_1","location":"Stack[0x04]","idx":0}],"name":"___free_lc_time","paramcount":1,"ASM":"PUSH ESI\nMOV ESI,dword ptr [ESP + 0x8]\n","jumpback":"0x6f8e4c09"},{"address":"0x6f8e4d94","returntype":"undefined","params":[{"type":"undefined4 *","size":4,"name":"param_1","location":"Stack[0x04]","idx":0}],"name":"___free_lconv_num","paramcount":1,"ASM":"PUSH ESI\nMOV ESI,dword ptr [ESP + 0x8]\n","jumpback":"0x6f8e4d99"},{"address":"0x6f8e4df3","returntype":"undefined","params":[{"type":"int","size":4,"name":"param_1","location":"Stack[0x04]","idx":0}],"name":"___free_lconv_mon","paramcount":1,"ASM":"PUSH ESI\nMOV ESI,dword ptr [ESP + 0x8]\n","jumpback":"0x6f8e4df8"},{"address":"0x6f8e4ed0","returntype":"char *","params":[{"type":"char *","size":4,"name":"dest","location":"Stack[0x04]","idx":0},{"type":"char *","size":4,"name":"src","location":"Stack[0x08]","idx":1}],"name":"StringCopyOptimized","paramcount":2,"ASM":"PUSH EDI\nMOV EDI,dword ptr [ESP + 0x8]\n","jumpback":"0x6f8e4ed5"},{"address":"0x6f8e4ee0","returntype":"char *","params":[{"type":"char *","size":4,"name":"pDestination","location":"Stack[0x04]","idx":0},{"type":"char *","size":4,"name":"pSource","location":"Stack[0x08]","idx":1}],"name":"StringConcatenateOptimized","paramcount":2,"ASM":"MOV ECX,dword ptr [ESP + 0x4]\nPUSH EDI\n","jumpback":"0x6f8e4ee5"},{"address":"0x6f8e4fd0","returntype":"typedef size_t uint","params":[{"type":"char *","size":4,"name":"_Str","location":"Stack[0x04]","idx":0},{"type":"char *","size":4,"name":"_Control","location":"Stack[0x08]","idx":1}],"name":"_strcspn","paramcount":2,"ASM":"PUSH EBP\nMOV EBP,ESP\nPUSH ESI\nXOR EAX,EAX\n","jumpback":"0x6f8e4fd6"},{"address":"0x6f8e5020","returntype":"void *","params":[{"type":"void *","size":4,"name":"_Dst","location":"Stack[0x04]","idx":0},{"type":"int","size":4,"name":"_Val","location":"Stack[0x08]","idx":1},{"type":"typedef size_t uint","size":4,"name":"_Size","location":"Stack[0x0C]","idx":2}],"name":"_memset","paramcount":3,"ASM":"MOV EDX,dword ptr [ESP + 0xc]\nMOV ECX,dword ptr [ESP + 0x4]\n","jumpback":"0x6f8e5028"},{"address":"0x6f8e5110","returntype":"void *","params":[{"type":"void *","size":4,"name":"_Dst","location":"Stack[0x04]","idx":0},{"type":"void *","size":4,"name":"_Src","location":"Stack[0x08]","idx":1},{"type":"typedef size_t uint","size":4,"name":"_Size","location":"Stack[0x0C]","idx":2}],"name":"_memcpy","paramcount":3,"ASM":"PUSH EBP\nMOV EBP,ESP\nPUSH EDI\nPUSH ESI\n","jumpback":"0x6f8e5115"},{"address":"0x6f8e5450","returntype":"int","params":[{"type":"void *","size":4,"name":"pBuffer1","location":"Stack[0x04]","idx":0},{"type":"void *","size":4,"name":"pBuffer2","location":"Stack[0x08]","idx":1},{"type":"uint","size":4,"name":"length","location":"Stack[0x0C]","idx":2}],"name":"CompareMemoryBuffers","paramcount":3,"ASM":"MOV EAX,dword ptr [ESP + 0xc]\nTEST EAX,EAX\n","jumpback":"0x6f8e5456"},{"address":"0x6f8e5508","returntype":"typedef BOOL int","params":[{"type":"typedef _locale_t localeinfo_struct *","size":4,"name":"_Plocinfo","location":"Stack[0x04]","idx":0},{"type":"typedef DWORD ulong","size":4,"name":"_DWInfoType","location":"Stack[0x08]","idx":1},{"type":"typedef LPCSTR CHAR *","size":4,"name":"_LpSrcStr","location":"Stack[0x0C]","idx":2},{"type":"int","size":4,"name":"_CchSrc","location":"Stack[0x10]","idx":3},{"type":"typedef LPWORD WORD *","size":4,"name":"_LpCharType","location":"Stack[0x14]","idx":4},{"type":"int","size":4,"name":"_Code_page","location":"Stack[0x18]","idx":5},{"type":"typedef BOOL int","size":4,"name":"_BError","location":"Stack[0x1C]","idx":6}],"name":"___crtGetStringTypeA","paramcount":7,"ASM":"PUSH 0x1c\nPUSH 0x6f8fc1a8\n","jumpback":"0x6f8e550f"},{"address":"0x6f8e56d0","returntype":"int","params":[{"type":"char *","size":4,"name":"_Str1","location":"Stack[0x04]","idx":0},{"type":"char *","size":4,"name":"_Str2","location":"Stack[0x08]","idx":1},{"type":"typedef size_t uint","size":4,"name":"_MaxCount","location":"Stack[0x0C]","idx":2}],"name":"_strncmp","paramcount":3,"ASM":"PUSH EBP\nMOV EBP,ESP\nPUSH EDI\nPUSH ESI\n","jumpback":"0x6f8e56d5"},{"address":"0x6f8e5710","returntype":"char *","params":[{"type":"char *","size":4,"name":"_Str","location":"Stack[0x04]","idx":0},{"type":"char *","size":4,"name":"_Control","location":"Stack[0x08]","idx":1}],"name":"_strpbrk","paramcount":2,"ASM":"PUSH EBP\nMOV EBP,ESP\nPUSH ESI\nXOR EAX,EAX\n","jumpback":"0x6f8e5716"},{"address":"0x6f8e5750","returntype":"uint","params":[{"type":"uint","size":4,"name":"codePageId","location":"ECX","idx":0}],"name":"MapCodePageToConstant","paramcount":1,"ASM":"SUB EAX,0x3a4\n","jumpback":"0x6f8e5755"},{"address":"0x6f8e577f","returntype":"undefined","params":[],"name":"setSBCS","paramcount":0,"ASM":"PUSH EDI\nPUSH 0x40\nXOR EAX,EAX\n","jumpback":"0x6f8e5784"},{"address":"0x6f8e57a8","returntype":"void","params":[],"name":"InitializeCharacterTypeTables","paramcount":0,"ASM":"PUSH EBP\nLEA EBP,[ESP + 0xfffffb68]\n","jumpback":"0x6f8e57b0"},{"address":"0x6f8e5943","returntype":"void","params":[{"type":"typedef UINT uint","size":4,"name":"codePage","location":"Stack[0x04]","idx":0}],"name":"SetMultibyteCodePage","paramcount":1,"ASM":"PUSH EBP\nMOV EBP,ESP\nSUB ESP,0x1c\n","jumpback":"0x6f8e5949"},{"address":"0x6f8e5ad7","returntype":"int","params":[{"type":"int","size":4,"name":"_CodePage","location":"Stack[0x04]","idx":0}],"name":"__setmbcp","paramcount":1,"ASM":"PUSH 0x14\nPUSH 0x6f8fc1b8\n","jumpback":"0x6f8e5ade"},{"address":"0x6f8e5c1e","returntype":"void","params":[],"name":"UnlockMultibyteCodePage","paramcount":0,"ASM":"PUSH 0xd\nCALL 0x6f8e2396\n","jumpback":"0x6f8e5c25"},{"address":"0x6f8e5c27","returntype":"undefined4","params":[],"name":"___initmbctable","paramcount":0,"ASM":"CMP dword ptr [0x6f9abc54],0x0\n","jumpback":"0x6f8e5c2e"},{"address":"0x6f8e5c45","returntype":"undefined4","params":[{"type":"undefined4","size":4,"name":"param_1","location":"Stack[0x04]","idx":0}],"name":"___sbh_heap_init","paramcount":1,"ASM":"PUSH 0x140\n","jumpback":"0x6f8e5c4a"},{"address":"0x6f8e5c8d","returntype":"uint","params":[{"type":"int","size":4,"name":"param_1","location":"Stack[0x04]","idx":0}],"name":"___sbh_find_block","paramcount":1,"ASM":"MOV EAX,[0x6f9aa8a0]\n","jumpback":"0x6f8e5c92"},{"address":"0x6f8e5cb8","returntype":"undefined","params":[{"type":"uint *","size":4,"name":"param_1","location":"Stack[0x04]","idx":0},{"type":"int","size":4,"name":"param_2","location":"Stack[0x08]","idx":1}],"name":"___sbh_free_block","paramcount":2,"ASM":"PUSH EBP\nMOV EBP,ESP\nSUB ESP,0x10\n","jumpback":"0x6f8e5cbe"},{"address":"0x6f8e5fd0","returntype":"undefined4 *","params":[],"name":"___sbh_alloc_new_region","paramcount":0,"ASM":"MOV EAX,[0x6f9aa8a0]\n","jumpback":"0x6f8e5fd5"},{"address":"0x6f8e6087","returntype":"int","params":[{"type":"int","size":4,"name":"param_1","location":"Stack[0x04]","idx":0}],"name":"___sbh_alloc_new_group","paramcount":1,"ASM":"PUSH EBP\nMOV EBP,ESP\nPUSH ECX\nPUSH ECX\n","jumpback":"0x6f8e608c"},{"address":"0x6f8e618d","returntype":"undefined4","params":[{"type":"uint *","size":4,"name":"param_1","location":"Stack[0x04]","idx":0},{"type":"int","size":4,"name":"param_2","location":"Stack[0x08]","idx":1},{"type":"int","size":4,"name":"param_3","location":"Stack[0x0C]","idx":2}],"name":"___sbh_resize_block","paramcount":3,"ASM":"PUSH EBP\nMOV EBP,ESP\nSUB ESP,0xc\n","jumpback":"0x6f8e6193"},{"address":"0x6f8e646c","returntype":"int *","params":[{"type":"uint *","size":4,"name":"param_1","location":"Stack[0x04]","idx":0}],"name":"___sbh_alloc_block","paramcount":1,"ASM":"PUSH EBP\nMOV EBP,ESP\nSUB ESP,0x14\n","jumpback":"0x6f8e6472"},{"address":"0x6f8e6768","returntype":"int","params":[{"type":"typedef size_t uint","size":4,"name":"_Size","location":"Stack[0x04]","idx":0}],"name":"__callnewh","paramcount":1,"ASM":"MOV EAX,[0x6f901394]\n","jumpback":"0x6f8e676d"},{"address":"0x6f8e6783","returntype":"int","params":[{"type":"typedef LPCSTR CHAR *","size":4,"name":"_LpText","location":"Stack[0x04]","idx":0},{"type":"typedef LPCSTR CHAR *","size":4,"name":"_LpCaption","location":"Stack[0x08]","idx":1},{"type":"typedef UINT uint","size":4,"name":"_UType","location":"Stack[0x0C]","idx":2}],"name":"___crtMessageBoxA","paramcount":3,"ASM":"PUSH EBP\nMOV EBP,ESP\nSUB ESP,0x10\n","jumpback":"0x6f8e6789"},{"address":"0x6f8e687c","returntype":"int","params":[{"type":"int","size":4,"name":"param_1","location":"Stack[0x04]","idx":0}],"name":"__free_osfhnd","paramcount":1,"ASM":"MOV ECX,dword ptr [ESP + 0x4]\nCMP ECX,dword ptr [0x6f9abb2c]\n","jumpback":"0x6f8e6886"},{"address":"0x6f8e68fb","returntype":"typedef intptr_t int","params":[{"type":"int","size":4,"name":"_FileHandle","location":"Stack[0x04]","idx":0}],"name":"__get_osfhandle","paramcount":1,"ASM":"MOV EAX,dword ptr [ESP + 0x4]\nCMP EAX,dword ptr [0x6f9abb2c]\n","jumpback":"0x6f8e6905"},{"address":"0x6f8e693c","returntype":"int","params":[{"type":"int","size":4,"name":"_Filehandle","location":"Stack[0x04]","idx":0}],"name":"__lock_fhandle","paramcount":1,"ASM":"PUSH 0x8\nPUSH 0x6f8fc238\n","jumpback":"0x6f8e6943"},{"address":"0x6f8e69d3","returntype":"void","params":[],"name":"UnlockFileHandleTable","paramcount":0,"ASM":"PUSH 0xa\nCALL 0x6f8e2396\n","jumpback":"0x6f8e69da"},{"address":"0x6f8e69dc","returntype":"void","params":[{"type":"int","size":4,"name":"_Filehandle","location":"Stack[0x04]","idx":0}],"name":"__unlock_fhandle","paramcount":1,"ASM":"MOV EAX,dword ptr [ESP + 0x4]\nMOV ECX,EAX\n","jumpback":"0x6f8e69e2"},{"address":"0x6f8e69fe","returntype":"undefined8","params":[{"type":"uint","size":4,"name":"param_1","location":"Stack[0x04]","idx":0},{"type":"typedef LONG long","size":4,"name":"param_2","location":"Stack[0x08]","idx":1},{"type":"typedef LONG long","size":4,"name":"param_3","location":"Stack[0x0C]","idx":2},{"type":"typedef DWORD ulong","size":4,"name":"param_4","location":"Stack[0x10]","idx":3}],"name":"__lseeki64_lk","paramcount":4,"ASM":"PUSH EBP\nMOV EBP,ESP\nPUSH ECX\nPUSH ECX\n","jumpback":"0x6f8e6a03"},{"address":"0x6f8e6a81","returntype":"int","params":[],"name":"FlushAndCloseAllStreams","paramcount":0,"ASM":"PUSH 0x10\nPUSH 0x6f8fc248\n","jumpback":"0x6f8e6a88"},{"address":"0x6f8e6b13","returntype":"void","params":[],"name":"UnlockGlobalIoLock","paramcount":0,"ASM":"PUSH 0x1\nCALL 0x6f8e2396\n","jumpback":"0x6f8e6b1a"},{"address":"0x6f8e6b1c","returntype":"int","params":[{"type":"FILE *","size":4,"name":"_File","location":"Stack[0x04]","idx":0}],"name":"__flush","paramcount":1,"ASM":"PUSH EBX\nPUSH ESI\nMOV ESI,dword ptr [ESP + 0xc]\n","jumpback":"0x6f8e6b22"},{"address":"0x6f8e6b79","returntype":"int","params":[{"type":"FILE *","size":4,"name":"pFileStream","location":"Stack[0x04]","idx":0}],"name":"FlushFileStreamToDisk","paramcount":1,"ASM":"PUSH ESI\nMOV ESI,dword ptr [ESP + 0x8]\n","jumpback":"0x6f8e6b7e"},{"address":"0x6f8e6ba7","returntype":"int","params":[{"type":"int","size":4,"name":"flushMode","location":"Stack[0x04]","idx":0}],"name":"FlushAllOpenFileStreams","paramcount":1,"ASM":"PUSH 0x14\nPUSH 0x6f8fc258\n","jumpback":"0x6f8e6bae"},{"address":"0x6f8e6c47","returntype":"void","params":[],"name":"ReleaseFileStreamLock","paramcount":0,"ASM":"MOV EAX,[0x6f9aab0c]\n","jumpback":"0x6f8e6c4c"},{"address":"0x6f8e6c73","returntype":"void","params":[],"name":"UnlockFileStreamTable","paramcount":0,"ASM":"PUSH 0x1\nCALL 0x6f8e2396\n","jumpback":"0x6f8e6c7a"},{"address":"0x6f8e6c7c","returntype":"void","params":[],"name":"FlushAllFileStreamsWrapper","paramcount":0,"ASM":"PUSH 0x1\nCALL 0x6f8e6ba7\n","jumpback":"0x6f8e6c83"},{"address":"0x6f8e6c8e","returntype":"void","params":[],"name":"___security_init_cookie","paramcount":0,"ASM":"PUSH EBP\nMOV EBP,ESP\nSUB ESP,0x10\n","jumpback":"0x6f8e6c94"},{"address":"0x6f8e6cf4","returntype":"void","params":[{"type":"int","size":4,"name":"failureType","location":"Stack[0x04]","idx":0}],"name":"DisplaySecurityErrorAndExit","paramcount":1,"ASM":"PUSH 0x118\n","jumpback":"0x6f8e6cf9"},{"address":"0x6f8e6e3f","returntype":"void","params":[{"type":"typedef LCID DWORD","size":4,"name":"localeId","location":"Stack[0x04]","idx":0}],"name":"GetLocaleCodePage","paramcount":1,"ASM":"PUSH EBP\nMOV EBP,ESP\nSUB ESP,0xc\n","jumpback":"0x6f8e6e45"},{"address":"0x6f8e6e86","returntype":"typedef LPSTR CHAR *","params":[{"type":"typedef UINT uint","size":4,"name":"sourceCodePage","location":"Stack[0x04]","idx":0},{"type":"typedef UINT uint","size":4,"name":"targetCodePage","location":"Stack[0x08]","idx":1},{"type":"char *","size":4,"name":"sourceStr","location":"Stack[0x0C]","idx":2},{"type":"uint *","size":4,"name":"pSourceLength","location":"Stack[0x10]","idx":3},{"type":"typedef LPSTR CHAR *","size":4,"name":"destStr","location":"Stack[0x14]","idx":4},{"type":"int","size":4,"name":"destSize","location":"Stack[0x18]","idx":5}],"name":"ConvertStringBetweenCodePages","paramcount":6,"ASM":"PUSH 0x44\nPUSH 0x6f8fc428\n","jumpback":"0x6f8e6e8d"},{"address":"0x6f8e7060","returntype":"int","params":[],"name":"__resetstkoflw","paramcount":0,"ASM":"PUSH EBP\nMOV EBP,ESP\nSUB ESP,0x4c\n","jumpback":"0x6f8e7066"},{"address":"0x6f8e7143","returntype":"long","params":[{"type":"char *","size":4,"name":"_Str","location":"Stack[0x04]","idx":0}],"name":"_atol","paramcount":1,"ASM":"PUSH ESI\nPUSH EDI\nCALL 0x6f8e2a93\n","jumpback":"0x6f8e714a"},{"address":"0x6f8e71cb","returntype":"int","params":[{"type":"FILE *","size":4,"name":"param_1","location":"Stack[0x04]","idx":0}],"name":"__fclose_lk","paramcount":1,"ASM":"PUSH ESI\nMOV ESI,dword ptr [ESP + 0x8]\n","jumpback":"0x6f8e71d0"},{"address":"0x6f8e7217","returntype":"int","params":[{"type":"FILE *","size":4,"name":"pStream","location":"Stack[0x04]","idx":0}],"name":"CloseFileStream","paramcount":1,"ASM":"PUSH 0xc\nPUSH 0x6f8fc478\n","jumpback":"0x6f8e721e"},{"address":"0x6f8e7260","returntype":"void","params":[{"type":"FILE *","size":4,"name":"pFile","location":"ECX","idx":0}],"name":"UnlockFileStreamWrapper","paramcount":1,"ASM":"PUSH ESI\nCALL 0x6f8e3e50\n","jumpback":"0x6f8e7266"},{"address":"0x6f8e7268","returntype":"int","params":[{"type":"uint","size":4,"name":"fileDescriptor","location":"Stack[0x04]","idx":0}],"name":"FlushFileDescriptor","paramcount":1,"ASM":"PUSH 0xc\nPUSH 0x6f8fc488\n","jumpback":"0x6f8e726f"},{"address":"0x6f8e7308","returntype":"void","params":[],"name":"UnlockFileHandleCleanup","paramcount":0,"ASM":"PUSH EBX\nCALL 0x6f8e69dc\n","jumpback":"0x6f8e730e"},{"address":"0x6f8e7324","returntype":"int","params":[{"type":"int","size":4,"name":"_C","location":"Stack[0x04]","idx":0}],"name":"_isdigit","paramcount":1,"ASM":"CALL 0x6f8e2a93\n","jumpback":"0x6f8e7329"},{"address":"0x6f8e73a0","returntype":"int","params":[{"type":"char *","size":4,"name":"_Str1","location":"Stack[0x04]","idx":0},{"type":"char *","size":4,"name":"_Str2","location":"Stack[0x08]","idx":1},{"type":"typedef size_t uint","size":4,"name":"_MaxCount","location":"Stack[0x0C]","idx":2}],"name":"___ascii_strnicmp","paramcount":3,"ASM":"PUSH EBP\nMOV EBP,ESP\nPUSH EDI\nPUSH ESI\n","jumpback":"0x6f8e73a5"},{"address":"0x6f8e7401","returntype":"undefined4","params":[{"type":"uint","size":4,"name":"param_1","location":"Stack[0x04]","idx":0}],"name":"__close_lk","paramcount":1,"ASM":"PUSH ESI\nMOV ESI,dword ptr [ESP + 0x8]\n","jumpback":"0x6f8e7406"},{"address":"0x6f8e7484","returntype":"int","params":[{"type":"int","size":4,"name":"_FileHandle","location":"Stack[0x04]","idx":0}],"name":"__close","paramcount":1,"ASM":"PUSH 0xc\nPUSH 0x6f8fc498\n","jumpback":"0x6f8e748b"},{"address":"0x6f8e74fb","returntype":"void","params":[{"type":"int","size":4,"name":"fileHandle","location":"EBX","idx":0}],"name":"UnlockFileHandle","paramcount":1,"ASM":"PUSH EBX\nCALL 0x6f8e69dc\n","jumpback":"0x6f8e7501"},{"address":"0x6f8e751f","returntype":"void","params":[{"type":"FILE *","size":4,"name":"_File","location":"Stack[0x04]","idx":0}],"name":"__freebuf","paramcount":1,"ASM":"PUSH ESI\nMOV ESI,dword ptr [ESP + 0x8]\n","jumpback":"0x6f8e7524"},{"address":"0x6f8e7550","returntype":"int","params":[{"type":"int","size":4,"name":"value","location":"ECX","idx":0}],"name":"DecrementValue","paramcount":1,"ASM":"LEA EAX,[EDX + -0x1]\nPOP EBX\nRET\n","jumpback":""},{"address":"0x6f8e761e","returntype":"void","params":[{"type":"typedef PVOID void *","size":4,"name":"TargetFrame","location":"Stack[0x04]","idx":0},{"type":"typedef PVOID void *","size":4,"name":"TargetIp","location":"Stack[0x08]","idx":1},{"type":"typedef PEXCEPTION_RECORD EXCEPTION_RECORD *","size":4,"name":"ExceptionRecord","location":"Stack[0x0C]","idx":2},{"type":"typedef PVOID void *","size":4,"name":"ReturnValue","location":"Stack[0x10]","idx":3}],"name":"RtlUnwind","paramcount":4,"ASM":"JMP dword ptr [0x6f8fb1c4]\n","jumpback":""},{"address":"0x6f8e7624","returntype":"undefined","params":[],"name":"Ordinal_511","paramcount":0,"ASM":"JMP dword ptr [0x6f8fb304]\n","jumpback":""},{"address":"0x6f8e762a","returntype":"undefined","params":[],"name":"Ordinal_412","paramcount":0,"ASM":"JMP dword ptr [0x6f8fb300]\n","jumpback":""},{"address":"0x6f8e7630","returntype":"undefined","params":[],"name":"Ordinal_401","paramcount":0,"ASM":"JMP dword ptr [0x6f8fb2fc]\n","jumpback":""},{"address":"0x6f8e7636","returntype":"undefined","params":[],"name":"Ordinal_403","paramcount":0,"ASM":"JMP dword ptr [0x6f8fb2f8]\n","jumpback":""},{"address":"0x6f8e763c","returntype":"undefined","params":[],"name":"Ordinal_512","paramcount":0,"ASM":"JMP dword ptr [0x6f8fb2f4]\n","jumpback":""},{"address":"0x6f8e7642","returntype":"undefined","params":[],"name":"Ordinal_513","paramcount":0,"ASM":"JMP dword ptr [0x6f8fb2f0]\n","jumpback":""},{"address":"0x6f8e7648","returntype":"undefined","params":[],"name":"Ordinal_415","paramcount":0,"ASM":"JMP dword ptr [0x6f8fb2ec]\n","jumpback":""},{"address":"0x6f8e764e","returntype":"undefined","params":[],"name":"Ordinal_514","paramcount":0,"ASM":"JMP dword ptr [0x6f8fb2e8]\n","jumpback":""},{"address":"0x6f8e7654","returntype":"undefined","params":[],"name":"Ordinal_414","paramcount":0,"ASM":"JMP dword ptr [0x6f8fb2e4]\n","jumpback":""},{"address":"0x6f8e765a","returntype":"undefined","params":[],"name":"Ordinal_417","paramcount":0,"ASM":"JMP dword ptr [0x6f8fb2e0]\n","jumpback":""},{"address":"0x6f8e7660","returntype":"undefined","params":[],"name":"Ordinal_416","paramcount":0,"ASM":"JMP dword ptr [0x6f8fb2dc]\n","jumpback":""},{"address":"0x6f8e7666","returntype":"undefined","params":[],"name":"Ordinal_515","paramcount":0,"ASM":"JMP dword ptr [0x6f8fb2d8]\n","jumpback":""},{"address":"0x6f8e766c","returntype":"undefined","params":[],"name":"Ordinal_503","paramcount":0,"ASM":"JMP dword ptr [0x6f8fb2d4]\n","jumpback":""},{"address":"0x6f8e7672","returntype":"undefined","params":[],"name":"Ordinal_501","paramcount":0,"ASM":"JMP dword ptr [0x6f8fb2d0]\n","jumpback":""},{"address":"0x6f8e7678","returntype":"undefined","params":[],"name":"Ordinal_10042","paramcount":0,"ASM":"JMP dword ptr [0x6f8fb1a4]\n","jumpback":""},{"address":"0x6f8e767e","returntype":"undefined","params":[],"name":"Ordinal_10107","paramcount":0,"ASM":"JMP dword ptr [0x6f8fb1a0]\n","jumpback":""},{"address":"0x6f8e7684","returntype":"undefined","params":[],"name":"Ordinal_10024","paramcount":0,"ASM":"JMP dword ptr [0x6f8fb19c]\n","jumpback":""},{"address":"0x6f8e768a","returntype":"undefined","params":[],"name":"Ordinal_10043","paramcount":0,"ASM":"JMP dword ptr [0x6f8fb198]\n","jumpback":""},{"address":"0x6f8e7690","returntype":"undefined","params":[],"name":"Ordinal_10109","paramcount":0,"ASM":"JMP dword ptr [0x6f8fb194]\n","jumpback":""},{"address":"0x6f8e7696","returntype":"undefined","params":[],"name":"Ordinal_10039","paramcount":0,"ASM":"JMP dword ptr [0x6f8fb190]\n","jumpback":""},{"address":"0x6f8e769c","returntype":"undefined","params":[],"name":"Ordinal_10029","paramcount":0,"ASM":"JMP dword ptr [0x6f8fb18c]\n","jumpback":""},{"address":"0x6f8e76a2","returntype":"undefined","params":[],"name":"Ordinal_10265","paramcount":0,"ASM":"JMP dword ptr [0x6f8fb188]\n","jumpback":""},{"address":"0x6f8e76a8","returntype":"undefined","params":[],"name":"Ordinal_10209","paramcount":0,"ASM":"JMP dword ptr [0x6f8fb184]\n","jumpback":""},{"address":"0x6f8e76ae","returntype":"undefined","params":[],"name":"Ordinal_10045","paramcount":0,"ASM":"JMP dword ptr [0x6f8fb180]\n","jumpback":""},{"address":"0x6f8e76b4","returntype":"undefined","params":[],"name":"Ordinal_10212","paramcount":0,"ASM":"JMP dword ptr [0x6f8fb148]\n","jumpback":""},{"address":"0x6f8e76ba","returntype":"undefined","params":[],"name":"Ordinal_10102","paramcount":0,"ASM":"JMP dword ptr [0x6f8fb178]\n","jumpback":""},{"address":"0x6f8e76c0","returntype":"undefined","params":[],"name":"Ordinal_10208","paramcount":0,"ASM":"JMP dword ptr [0x6f8fb174]\n","jumpback":""},{"address":"0x6f8e76c6","returntype":"undefined","params":[],"name":"Ordinal_10211","paramcount":0,"ASM":"JMP dword ptr [0x6f8fb170]\n","jumpback":""},{"address":"0x6f8e76cc","returntype":"undefined","params":[],"name":"Ordinal_10210","paramcount":0,"ASM":"JMP dword ptr [0x6f8fb16c]\n","jumpback":""},{"address":"0x6f8e76d2","returntype":"undefined","params":[],"name":"Ordinal_10103","paramcount":0,"ASM":"JMP dword ptr [0x6f8fb168]\n","jumpback":""},{"address":"0x6f8e76d8","returntype":"undefined","params":[],"name":"Ordinal_10215","paramcount":0,"ASM":"JMP dword ptr [0x6f8fb164]\n","jumpback":""},{"address":"0x6f8e76de","returntype":"undefined","params":[],"name":"Ordinal_10207","paramcount":0,"ASM":"JMP dword ptr [0x6f8fb160]\n","jumpback":""},{"address":"0x6f8e76e4","returntype":"undefined","params":[],"name":"Ordinal_10046","paramcount":0,"ASM":"JMP dword ptr [0x6f8fb15c]\n","jumpback":""},{"address":"0x6f8e76ea","returntype":"undefined","params":[],"name":"Ordinal_10117","paramcount":0,"ASM":"JMP dword ptr [0x6f8fb158]\n","jumpback":""},{"address":"0x6f8e76f0","returntype":"undefined","params":[],"name":"Ordinal_10116","paramcount":0,"ASM":"JMP dword ptr [0x6f8fb154]\n","jumpback":""},{"address":"0x6f8e76f6","returntype":"undefined","params":[],"name":"Ordinal_10227","paramcount":0,"ASM":"JMP dword ptr [0x6f8fb150]\n","jumpback":""},{"address":"0x6f8e76fc","returntype":"undefined","params":[],"name":"Ordinal_10024","paramcount":0,"ASM":"JMP dword ptr [0x6f8fb130]\n","jumpback":""},{"address":"0x6f8e7702","returntype":"undefined","params":[],"name":"Ordinal_10013","paramcount":0,"ASM":"JMP dword ptr [0x6f8fb138]\n","jumpback":""},{"address":"0x6f8e7708","returntype":"undefined","params":[],"name":"Ordinal_10035","paramcount":0,"ASM":"JMP dword ptr [0x6f8fb134]\n","jumpback":""},{"address":"0x6f8e770e","returntype":"undefined","params":[],"name":"Ordinal_10045","paramcount":0,"ASM":"JMP dword ptr [0x6f8fb11c]\n","jumpback":""},{"address":"0x6f8e7714","returntype":"undefined","params":[],"name":"Ordinal_10030","paramcount":0,"ASM":"JMP dword ptr [0x6f8fb12c]\n","jumpback":""},{"address":"0x6f8e771a","returntype":"undefined","params":[],"name":"Ordinal_10011","paramcount":0,"ASM":"JMP dword ptr [0x6f8fb128]\n","jumpback":""},{"address":"0x6f8e7720","returntype":"undefined","params":[],"name":"Ordinal_10004","paramcount":0,"ASM":"JMP dword ptr [0x6f8fb124]\n","jumpback":""},{"address":"0x6f8e7726","returntype":"undefined","params":[],"name":"Ordinal_10070","paramcount":0,"ASM":"JMP dword ptr [0x6f8fb120]\n","jumpback":""},{"address":"0x6f8e772c","returntype":"undefined","params":[],"name":"Ordinal_10104","paramcount":0,"ASM":"JMP dword ptr [0x6f8fb000]\n","jumpback":""},{"address":"0x6f8e7732","returntype":"undefined","params":[],"name":"Ordinal_10068","paramcount":0,"ASM":"JMP dword ptr [0x6f8fb004]\n","jumpback":""},{"address":"0x6f8e7738","returntype":"undefined","params":[],"name":"Ordinal_10019","paramcount":0,"ASM":"JMP dword ptr [0x6f8fb008]\n","jumpback":""},{"address":"0x6f8e773e","returntype":"undefined","params":[],"name":"Ordinal_10060","paramcount":0,"ASM":"JMP dword ptr [0x6f8fb00c]\n","jumpback":""},{"address":"0x6f8e7744","returntype":"undefined","params":[],"name":"Ordinal_10021","paramcount":0,"ASM":"JMP dword ptr [0x6f8fb034]\n","jumpback":""},{"address":"0x6f8e774a","returntype":"undefined","params":[],"name":"Ordinal_10086","paramcount":0,"ASM":"JMP dword ptr [0x6f8fb010]\n","jumpback":""},{"address":"0x6f8e7750","returntype":"undefined","params":[],"name":"Ordinal_10000","paramcount":0,"ASM":"JMP dword ptr [0x6f8fb014]\n","jumpback":""},{"address":"0x6f8e7756","returntype":"undefined","params":[],"name":"Ordinal_10002","paramcount":0,"ASM":"JMP dword ptr [0x6f8fb018]\n","jumpback":""},{"address":"0x6f8e775c","returntype":"undefined","params":[],"name":"Ordinal_10069","paramcount":0,"ASM":"JMP dword ptr [0x6f8fb01c]\n","jumpback":""},{"address":"0x6f8e7762","returntype":"undefined","params":[],"name":"Ordinal_10049","paramcount":0,"ASM":"JMP dword ptr [0x6f8fb020]\n","jumpback":""},{"address":"0x6f8e7768","returntype":"undefined","params":[],"name":"Ordinal_10005","paramcount":0,"ASM":"JMP dword ptr [0x6f8fb024]\n","jumpback":""},{"address":"0x6f8e776e","returntype":"undefined","params":[],"name":"Ordinal_10006","paramcount":0,"ASM":"JMP dword ptr [0x6f8fb028]\n","jumpback":""},{"address":"0x6f8e7774","returntype":"undefined","params":[],"name":"Ordinal_10070","paramcount":0,"ASM":"JMP dword ptr [0x6f8fb02c]\n","jumpback":""},{"address":"0x6f8e777a","returntype":"undefined","params":[],"name":"Ordinal_10065","paramcount":0,"ASM":"JMP dword ptr [0x6f8fb030]\n","jumpback":""},{"address":"0x6f8e7780","returntype":"undefined","params":[],"name":"Ordinal_10003","paramcount":0,"ASM":"JMP dword ptr [0x6f8fb048]\n","jumpback":""},{"address":"0x6f8e7786","returntype":"undefined","params":[],"name":"Ordinal_10009","paramcount":0,"ASM":"JMP dword ptr [0x6f8fb068]\n","jumpback":""},{"address":"0x6f8e778c","returntype":"undefined","params":[],"name":"Ordinal_10005","paramcount":0,"ASM":"JMP dword ptr [0x6f8fb08c]\n","jumpback":""},{"address":"0x6f8e7792","returntype":"undefined","params":[],"name":"Ordinal_10059","paramcount":0,"ASM":"JMP dword ptr [0x6f8fb080]\n","jumpback":""},{"address":"0x6f8e7798","returntype":"undefined","params":[],"name":"Ordinal_10025","paramcount":0,"ASM":"JMP dword ptr [0x6f8fb084]\n","jumpback":""},{"address":"0x6f8e779e","returntype":"undefined","params":[],"name":"Ordinal_10032","paramcount":0,"ASM":"JMP dword ptr [0x6f8fb0f0]\n","jumpback":""},{"address":"0x6f8e77a4","returntype":"undefined","params":[],"name":"Ordinal_10026","paramcount":0,"ASM":"JMP dword ptr [0x6f8fb090]\n","jumpback":""},{"address":"0x6f8e77aa","returntype":"undefined","params":[],"name":"Ordinal_10015","paramcount":0,"ASM":"JMP dword ptr [0x6f8fb094]\n","jumpback":""},{"address":"0x6f8e77b0","returntype":"undefined","params":[],"name":"Ordinal_10044","paramcount":0,"ASM":"JMP dword ptr [0x6f8fb098]\n","jumpback":""},{"address":"0x6f8e77b6","returntype":"undefined","params":[],"name":"Ordinal_10063","paramcount":0,"ASM":"JMP dword ptr [0x6f8fb09c]\n","jumpback":""},{"address":"0x6f8e77bc","returntype":"undefined","params":[],"name":"Ordinal_10051","paramcount":0,"ASM":"JMP dword ptr [0x6f8fb0a0]\n","jumpback":""},{"address":"0x6f8e77c2","returntype":"undefined","params":[],"name":"Ordinal_10040","paramcount":0,"ASM":"JMP dword ptr [0x6f8fb0a4]\n","jumpback":""},{"address":"0x6f8e77c8","returntype":"undefined","params":[],"name":"Ordinal_10021","paramcount":0,"ASM":"JMP dword ptr [0x6f8fb0a8]\n","jumpback":""},{"address":"0x6f8e77ce","returntype":"undefined","params":[],"name":"Ordinal_10041","paramcount":0,"ASM":"JMP dword ptr [0x6f8fb0ac]\n","jumpback":""},{"address":"0x6f8e77d4","returntype":"undefined","params":[],"name":"Ordinal_10067","paramcount":0,"ASM":"JMP dword ptr [0x6f8fb0b0]\n","jumpback":""},{"address":"0x6f8e77da","returntype":"undefined","params":[],"name":"Ordinal_10072","paramcount":0,"ASM":"JMP dword ptr [0x6f8fb0b4]\n","jumpback":""},{"address":"0x6f8e77e0","returntype":"undefined","params":[],"name":"Ordinal_10065","paramcount":0,"ASM":"JMP dword ptr [0x6f8fb0b8]\n","jumpback":""},{"address":"0x6f8e77e6","returntype":"undefined","params":[],"name":"Ordinal_10029","paramcount":0,"ASM":"JMP dword ptr [0x6f8fb0bc]\n","jumpback":""},{"address":"0x6f8e77ec","returntype":"undefined","params":[],"name":"Ordinal_10086","paramcount":0,"ASM":"JMP dword ptr [0x6f8fb0c0]\n","jumpback":""},{"address":"0x6f8e77f2","returntype":"undefined","params":[],"name":"Ordinal_10060","paramcount":0,"ASM":"JMP dword ptr [0x6f8fb0c4]\n","jumpback":""},{"address":"0x6f8e77f8","returntype":"undefined","params":[],"name":"Ordinal_10043","paramcount":0,"ASM":"JMP dword ptr [0x6f8fb0cc]\n","jumpback":""},{"address":"0x6f8e77fe","returntype":"undefined","params":[],"name":"Ordinal_10085","paramcount":0,"ASM":"JMP dword ptr [0x6f8fb0d0]\n","jumpback":""},{"address":"0x6f8e7804","returntype":"undefined","params":[],"name":"Ordinal_10080","paramcount":0,"ASM":"JMP dword ptr [0x6f8fb0d4]\n","jumpback":""},{"address":"0x6f8e780a","returntype":"undefined","params":[],"name":"Ordinal_10031","paramcount":0,"ASM":"JMP dword ptr [0x6f8fb0d8]\n","jumpback":""},{"address":"0x6f8e7810","returntype":"undefined","params":[],"name":"Ordinal_10045","paramcount":0,"ASM":"JMP dword ptr [0x6f8fb0dc]\n","jumpback":""},{"address":"0x6f8e7816","returntype":"undefined","params":[],"name":"Ordinal_10048","paramcount":0,"ASM":"JMP dword ptr [0x6f8fb0e0]\n","jumpback":""},{"address":"0x6f8e781c","returntype":"undefined","params":[],"name":"Ordinal_10017","paramcount":0,"ASM":"JMP dword ptr [0x6f8fb0e4]\n","jumpback":""},{"address":"0x6f8e7822","returntype":"undefined","params":[],"name":"Ordinal_10014","paramcount":0,"ASM":"JMP dword ptr [0x6f8fb0e8]\n","jumpback":""},{"address":"0x6f8e7828","returntype":"undefined","params":[],"name":"Ordinal_10074","paramcount":0,"ASM":"JMP dword ptr [0x6f8fb0ec]\n","jumpback":""},{"address":"0x6f8e782e","returntype":"undefined","params":[],"name":"Ordinal_10019","paramcount":0,"ASM":"JMP dword ptr [0x6f8fb088]\n","jumpback":""},{"address":"0x6f8e7834","returntype":"undefined","params":[],"name":"Ordinal_10078","paramcount":0,"ASM":"JMP dword ptr [0x6f8fb0f4]\n","jumpback":""},{"address":"0x6f8e783a","returntype":"undefined","params":[],"name":"Ordinal_10024","paramcount":0,"ASM":"JMP dword ptr [0x6f8fb0f8]\n","jumpback":""},{"address":"0x6f8e7840","returntype":"undefined","params":[],"name":"Ordinal_10000","paramcount":0,"ASM":"JMP dword ptr [0x6f8fb0fc]\n","jumpback":""},{"address":"0x6f8e7846","returntype":"undefined","params":[],"name":"Ordinal_10052","paramcount":0,"ASM":"JMP dword ptr [0x6f8fb100]\n","jumpback":""},{"address":"0x6f8e784c","returntype":"undefined","params":[],"name":"Ordinal_10035","paramcount":0,"ASM":"JMP dword ptr [0x6f8fb104]\n","jumpback":""},{"address":"0x6f8e7852","returntype":"undefined","params":[],"name":"Ordinal_10079","paramcount":0,"ASM":"JMP dword ptr [0x6f8fb108]\n","jumpback":""},{"address":"0x6f8e7858","returntype":"undefined","params":[],"name":"Ordinal_10061","paramcount":0,"ASM":"JMP dword ptr [0x6f8fb10c]\n","jumpback":""},{"address":"0x6f8e785e","returntype":"undefined","params":[],"name":"Ordinal_10022","paramcount":0,"ASM":"JMP dword ptr [0x6f8fb110]\n","jumpback":""},{"address":"0x6f8e7864","returntype":"undefined","params":[],"name":"Ordinal_10011","paramcount":0,"ASM":"JMP dword ptr [0x6f8fb114]\n","jumpback":""},{"address":"0x6f8e7870","returntype":"char *","params":[{"type":"char *","size":4,"name":"_Str","location":"Stack[0x04]","idx":0},{"type":"int","size":4,"name":"_Ch","location":"Stack[0x08]","idx":1}],"name":"_strrchr","paramcount":2,"ASM":"PUSH EBP\nMOV EBP,ESP\nPUSH EDI\nMOV EDI,dword ptr [EBP + 0x8]\n","jumpback":"0x6f8e7877"},{"address":"0x6f8e789e","returntype":"undefined","params":[],"name":"Ordinal_266","paramcount":0,"ASM":"JMP dword ptr [0x6f8fb314]\n","jumpback":""},{"address":"0x6f8e78a4","returntype":"undefined","params":[],"name":"Ordinal_276","paramcount":0,"ASM":"JMP dword ptr [0x6f8fb310]\n","jumpback":""},{"address":"0x6f8e78aa","returntype":"undefined","params":[],"name":"Ordinal_571","paramcount":0,"ASM":"JMP dword ptr [0x6f8fb30c]\n","jumpback":""},{"address":"0x6f8e78b0","returntype":"undefined","params":[],"name":"Ordinal_252","paramcount":0,"ASM":"JMP dword ptr [0x6f8fb308]\n","jumpback":""},{"address":"0x6f8e78b6","returntype":"undefined","params":[],"name":"Ordinal_10104","paramcount":0,"ASM":"JMP dword ptr [0x6f8fb140]\n","jumpback":""},{"address":"0x6f8e78bc","returntype":"undefined","params":[],"name":"Ordinal_10106","paramcount":0,"ASM":"JMP dword ptr [0x6f8fb14c]\n","jumpback":""},{"address":"0x6f8e78c2","returntype":"undefined","params":[],"name":"Ordinal_10105","paramcount":0,"ASM":"JMP dword ptr [0x6f8fb144]\n","jumpback":""},{"address":"0x6f8e78d0","returntype":"int","params":[{"type":"uint","size":4,"name":"bitmask","location":"Stack[0x04]","idx":0}],"name":"FindFirstSetBit","paramcount":1,"ASM":"PUSH ECX\nMOV EAX,dword ptr [ESP + 0x8]\n","jumpback":"0x6f8e78d5"},{"address":"0x6f8e78f0","returntype":"void","params":[],"name":"CleanupArchiveHandle","paramcount":0,"ASM":"MOV EAX,dword ptr [ESI]\nTEST EAX,EAX\nJZ 0x6f8e78fc\n","jumpback":"0x6f8e78f6"},{"address":"0x6f8e7920","returntype":"void","params":[{"type":"char *","size":4,"name":"pPathBuffer","location":"Stack[0x04]","idx":0}],"name":"GetModuleDirectoryPath","paramcount":1,"ASM":"PUSH ESI\nPUSH 0x104\n","jumpback":"0x6f8e7926"},{"address":"0x6f8e7970","returntype":"void","params":[{"type":"int","size":4,"name":"stackParam","location":"Stack[0x04]","idx":0}],"name":"ValidateScreenshotParameters","paramcount":1,"ASM":"SUB ESP,0x108\n","jumpback":"0x6f8e7976"},{"address":"0x6f8e79f0","returntype":"void","params":[{"type":"int","size":4,"name":"errorCode","location":"Stack[0x04]","idx":0},{"type":"int","size":4,"name":"width","location":"Stack[0x08]","idx":1},{"type":"int","size":4,"name":"height","location":"Stack[0x0C]","idx":2}],"name":"HandleWindowResizeError","paramcount":3,"ASM":"SUB ESP,0x104\n","jumpback":"0x6f8e79f6"},{"address":"0x6f8e7a60","returntype":"void","params":[{"type":"int","size":4,"name":"nErrorCode","location":"Stack[0x04]","idx":0}],"name":"HandleScreenshotSaveError","paramcount":1,"ASM":"SUB ESP,0x104\n","jumpback":"0x6f8e7a66"},{"address":"0x6f8e7ac0","returntype":"void","params":[{"type":"ScreenshotConfig *","size":4,"name":"pConfig","location":"ECX","idx":0}],"name":"ValidateScreenshotConfig","paramcount":1,"ASM":"TEST ECX,ECX\nJNZ 0x6f8e7ae0\nPUSH 0x49\n","jumpback":"0x6f8e7ac6"},{"address":"0x6f8e7af0","returntype":"typedef BOOL int","params":[{"type":"typedef BOOL int","size":4,"name":"bSuppressNotFoundError","location":"Stack[0x04]","idx":0}],"name":"OpenFileWithErrorHandling","paramcount":1,"ASM":"MOV ECX,ESI\nCALL 0x6f8e76ba\n","jumpback":"0x6f8e7af7"},{"address":"0x6f8e7b30","returntype":"int","params":[{"type":"char *","size":4,"name":"pSourcePath","location":"Stack[0x04]","idx":0},{"type":"uint *","size":4,"name":"pOutFlags","location":"Stack[0x08]","idx":1}],"name":"SearchFileOnCdromDrives","paramcount":2,"ASM":"SUB ESP,0x104\n","jumpback":"0x6f8e7b36"},{"address":"0x6f8e7c60","returntype":"typedef HANDLE void *","params":[{"type":"typedef HANDLE void *","size":4,"name":"hScreenshotObject","location":"Stack[0x04]","idx":0},{"type":"HANDLE *","size":4,"name":"pOutputHandle","location":"Stack[0x08]","idx":1}],"name":"CreateAndSaveScreenshotFile","paramcount":2,"ASM":"PUSH ECX\nPUSH EBP\nMOV EBP,dword ptr [ESP + 0x10]\n","jumpback":"0x6f8e7c66"},{"address":"0x6f8e7dc0","returntype":"uint","params":[{"type":"char *","size":4,"name":"pPathBuffer","location":"Stack[0x04]","idx":0},{"type":"uint","size":4,"name":"statusValue","location":"Stack[0x08]","idx":1}],"name":"SearchFileInMultipleLocations","paramcount":2,"ASM":"TEST EAX,EAX\nPUSH EBP\nMOV EBP,dword ptr [ESP + 0x8]\n","jumpback":"0x6f8e7dc7"},{"address":"0x6f8e7e60","returntype":"uint *","params":[{"type":"undefined4","size":4,"name":"moduleContext","location":"Stack[0x04]","idx":0},{"type":"uint","size":4,"name":"dllNamePtr","location":"Stack[0x08]","idx":1},{"type":"undefined4","size":4,"name":"searchFlags","location":"Stack[0x0C]","idx":2},{"type":"undefined4","size":4,"name":"reserved","location":"Stack[0x10]","idx":3},{"type":"undefined *","size":4,"name":"retryCallback","location":"Stack[0x14]","idx":4}],"name":"LoadDllWithRetry","paramcount":5,"ASM":"PUSH EBX\nPUSH EBP\nMOV EBP,dword ptr [ESP + 0x18]\n","jumpback":"0x6f8e7e66"},{"address":"0x6f8e7ef0","returntype":"int","params":[{"type":"void *","size":4,"name":"pContext","location":"Stack[0x04]","idx":0}],"name":"CountLinkedListNodes","paramcount":1,"ASM":"TEST EAX,EAX\nJNZ 0x6f8e7efb\nPUSH 0x393\n","jumpback":"0x6f8e7ef9"},{"address":"0x6f8e7f40","returntype":"undefined4","params":[{"type":"int *","size":4,"name":"param_1","location":"ECX","idx":0},{"type":"int","size":4,"name":"param_2","location":"EDX","idx":1},{"type":"undefined4","size":4,"name":"param_3","location":"Stack[0x04]","idx":2}],"name":"Ordinal_10133","paramcount":3,"ASM":"TEST ECX,ECX\nJNZ 0x6f8e7f4b\nPUSH 0x368\n","jumpback":"0x6f8e7f49"},{"address":"0x6f8e8000","returntype":"void","params":[],"name":"AssertionFailureHandler","paramcount":0,"ASM":"PUSH 0x32e\n","jumpback":"0x6f8e8005"},{"address":"0x6f8e8020","returntype":"undefined","params":[],"name":"Ordinal_10087","paramcount":0,"ASM":"TEST ECX,ECX\nJNZ 0x6f8e802b\nPUSH 0x309\n","jumpback":"0x6f8e8029"},{"address":"0x6f8e8070","returntype":"undefined","params":[{"type":"int *","size":4,"name":"param_1","location":"ECX","idx":0},{"type":"int","size":4,"name":"param_2","location":"EDX","idx":1},{"type":"int","size":4,"name":"param_3","location":"Stack[0x04]","idx":2}],"name":"Ordinal_10095","paramcount":3,"ASM":"TEST ECX,ECX\nJNZ 0x6f8e807b\nPUSH 0x2fc\n","jumpback":"0x6f8e8079"},{"address":"0x6f8e80c0","returntype":"undefined","params":[{"type":"int *","size":4,"name":"param_1","location":"ECX","idx":0},{"type":"int","size":4,"name":"param_2","location":"EDX","idx":1},{"type":"int","size":4,"name":"param_3","location":"Stack[0x04]","idx":2}],"name":"Ordinal_10015","paramcount":3,"ASM":"TEST ECX,ECX\nJNZ 0x6f8e80cb\nPUSH 0x2ef\n","jumpback":"0x6f8e80c9"},{"address":"0x6f8e8110","returntype":"undefined","params":[{"type":"int *","size":4,"name":"param_1","location":"ECX","idx":0},{"type":"int","size":4,"name":"param_2","location":"EDX","idx":1}],"name":"Ordinal_10036","paramcount":2,"ASM":"TEST ECX,ECX\nJNZ 0x6f8e811b\nPUSH 0x2dd\n","jumpback":"0x6f8e8119"},{"address":"0x6f8e8170","returntype":"undefined4","params":[{"type":"int *","size":4,"name":"param_1","location":"ECX","idx":0},{"type":"int","size":4,"name":"param_2","location":"EDX","idx":1},{"type":"int","size":4,"name":"param_3","location":"Stack[0x04]","idx":2}],"name":"Ordinal_10033","paramcount":3,"ASM":"TEST ECX,ECX\nJNZ 0x6f8e817b\nPUSH 0x2c2\n","jumpback":"0x6f8e8179"},{"address":"0x6f8e8230","returntype":"undefined4","params":[{"type":"int *","size":4,"name":"param_1","location":"ECX","idx":0}],"name":"Ordinal_10114","paramcount":1,"ASM":"TEST ECX,ECX\nJNZ 0x6f8e823b\nPUSH 0x2a6\n","jumpback":"0x6f8e8239"},{"address":"0x6f8e8290","returntype":"int","params":[{"type":"int *","size":4,"name":"param_1","location":"ECX","idx":0}],"name":"Ordinal_10027","paramcount":1,"ASM":"TEST ECX,ECX\nJNZ 0x6f8e829b\nPUSH 0x256\n","jumpback":"0x6f8e8299"},{"address":"0x6f8e82d0","returntype":"int","params":[{"type":"int *","size":4,"name":"param_1","location":"ECX","idx":0}],"name":"Ordinal_10030","paramcount":1,"ASM":"TEST ECX,ECX\nJNZ 0x6f8e82db\nPUSH 0x24a\n","jumpback":"0x6f8e82d9"},{"address":"0x6f8e8310","returntype":"int","params":[{"type":"int *","size":4,"name":"param_1","location":"ECX","idx":0}],"name":"Ordinal_10061","paramcount":1,"ASM":"TEST ECX,ECX\nJNZ 0x6f8e831b\nPUSH 0x23e\n","jumpback":"0x6f8e8319"},{"address":"0x6f8e8350","returntype":"undefined","params":[{"type":"int *","size":4,"name":"param_1","location":"ECX","idx":0},{"type":"int","size":4,"name":"param_2","location":"EDX","idx":1}],"name":"Ordinal_10067","paramcount":2,"ASM":"TEST ECX,ECX\nJNZ 0x6f8e835b\nPUSH 0x21d\n","jumpback":"0x6f8e8359"},{"address":"0x6f8e8400","returntype":"undefined4","params":[{"type":"int *","size":4,"name":"param_1","location":"ECX","idx":0},{"type":"int","size":4,"name":"param_2","location":"EDX","idx":1},{"type":"int","size":4,"name":"param_3","location":"Stack[0x04]","idx":2}],"name":"Ordinal_10094","paramcount":3,"ASM":"TEST ECX,ECX\nJNZ 0x6f8e840b\nPUSH 0xfa\n","jumpback":"0x6f8e8409"},{"address":"0x6f8e8450","returntype":"undefined4","params":[{"type":"int *","size":4,"name":"param_1","location":"ECX","idx":0}],"name":"Ordinal_10106","paramcount":1,"ASM":"PUSH ECX\nPUSH EBP\nXOR EBP,EBP\nCMP ECX,EBP\n","jumpback":"0x6f8e8456"},{"address":"0x6f8e84f0","returntype":"undefined","params":[{"type":"undefined4","size":4,"name":"param_1","location":"ECX","idx":0}],"name":"Ordinal_10109","paramcount":1,"ASM":"MOV dword ptr [0x6f9a9ce8],ECX\n","jumpback":"0x6f8e84f6"},{"address":"0x6f8e8500","returntype":"int","params":[{"type":"int *","size":4,"name":"param_1","location":"ECX","idx":0}],"name":"Ordinal_10178","paramcount":1,"ASM":"TEST ECX,ECX\nJNZ 0x6f8e850b\nPUSH 0x5be\n","jumpback":"0x6f8e8509"},{"address":"0x6f8e8550","returntype":"undefined","params":[{"type":"int *","size":4,"name":"param_1","location":"ECX","idx":0},{"type":"int","size":4,"name":"param_2","location":"EDX","idx":1}],"name":"Ordinal_10117","paramcount":2,"ASM":"TEST ECX,ECX\nJNZ 0x6f8e855b\nPUSH 0x5b4\n","jumpback":"0x6f8e8559"},{"address":"0x6f8e85a0","returntype":"undefined4","params":[{"type":"int *","size":4,"name":"param_1","location":"ECX","idx":0},{"type":"int","size":4,"name":"param_2","location":"EDX","idx":1}],"name":"Ordinal_10195","paramcount":2,"ASM":"TEST ECX,ECX\nJNZ 0x6f8e85ab\nPUSH 0x5aa\n","jumpback":"0x6f8e85a9"},{"address":"0x6f8e85f0","returntype":"undefined4","params":[{"type":"int *","size":4,"name":"param_1","location":"ECX","idx":0},{"type":"int","size":4,"name":"param_2","location":"EDX","idx":1}],"name":"Ordinal_10035","paramcount":2,"ASM":"TEST ECX,ECX\nJNZ 0x6f8e85fb\nPUSH 0x5a0\n","jumpback":"0x6f8e85f9"},{"address":"0x6f8e8640","returntype":"undefined4","params":[{"type":"int *","size":4,"name":"param_1","location":"ECX","idx":0},{"type":"int","size":4,"name":"param_2","location":"EDX","idx":1}],"name":"Ordinal_10124","paramcount":2,"ASM":"TEST ECX,ECX\nJNZ 0x6f8e864b\nPUSH 0x596\n","jumpback":"0x6f8e8649"},{"address":"0x6f8e8690","returntype":"int","params":[{"type":"int *","size":4,"name":"param_1","location":"ECX","idx":0}],"name":"Ordinal_10089","paramcount":1,"ASM":"TEST ECX,ECX\nJNZ 0x6f8e869b\nPUSH 0x58c\n","jumpback":"0x6f8e8699"},{"address":"0x6f8e86e0","returntype":"undefined4","params":[{"type":"int *","size":4,"name":"param_1","location":"ECX","idx":0},{"type":"uint","size":4,"name":"param_2","location":"EDX","idx":1}],"name":"Ordinal_10160","paramcount":2,"ASM":"TEST ECX,ECX\nJNZ 0x6f8e86eb\nPUSH 0x582\n","jumpback":"0x6f8e86e9"},{"address":"0x6f8e8740","returntype":"int","params":[{"type":"int *","size":4,"name":"param_1","location":"ECX","idx":0}],"name":"Ordinal_10019","paramcount":1,"ASM":"TEST ECX,ECX\nJNZ 0x6f8e874b\nPUSH 0x578\n","jumpback":"0x6f8e8749"},{"address":"0x6f8e8790","returntype":"int","params":[{"type":"wchar_t *","size":4,"name":"pWideString","location":"Stack[0x04]","idx":0},{"type":"int","size":4,"name":"maxPixelWidth","location":"Stack[0x08]","idx":1}],"name":"TruncateUnicodeStringToPixelWidth","paramcount":2,"ASM":"PUSH ECX\nPUSH EBX\nPUSH ESI\nMOV ESI,dword ptr [ESP + 0x10]\n","jumpback":"0x6f8e8797"},{"address":"0x6f8e8830","returntype":"undefined","params":[{"type":"int *","size":4,"name":"param_1","location":"ECX","idx":0},{"type":"int","size":4,"name":"param_2","location":"EDX","idx":1}],"name":"Ordinal_10135","paramcount":2,"ASM":"TEST ECX,ECX\nJNZ 0x6f8e883b\nPUSH 0x33b\n","jumpback":"0x6f8e8839"},{"address":"0x6f8e88a0","returntype":"undefined4","params":[{"type":"int *","size":4,"name":"param_1","location":"ECX","idx":0},{"type":"int","size":4,"name":"param_2","location":"EDX","idx":1}],"name":"Ordinal_10037","paramcount":2,"ASM":"TEST ECX,ECX\nJNZ 0x6f8e88ab\nPUSH 0x271\n","jumpback":"0x6f8e88a9"},{"address":"0x6f8e8920","returntype":"int","params":[{"type":"void *","size":4,"name":"pScreenshotContext","location":"Stack[0x04]","idx":0},{"type":"int","size":4,"name":"rowIndex","location":"Stack[0x08]","idx":1},{"type":"int","size":4,"name":"columnIndex","location":"Stack[0x0C]","idx":2},{"type":"Unicode *","size":4,"name":"filename","location":"Stack[0x10]","idx":3}],"name":"SetScreenshotFilename","paramcount":4,"ASM":"SUB ESP,0x800\n","jumpback":"0x6f8e8926"},{"address":"0x6f8e8a30","returntype":"undefined","params":[{"type":"undefined4","size":4,"name":"param_1","location":"ECX","idx":0},{"type":"Unicode *","size":4,"name":"param_2","location":"EDX","idx":1},{"type":"int","size":4,"name":"param_3","location":"Stack[0x04]","idx":2},{"type":"int","size":4,"name":"param_4","location":"Stack[0x08]","idx":3}],"name":"Ordinal_10120","paramcount":4,"ASM":"MOV EAX,ECX\nMOV ECX,dword ptr [ESP + 0x8]\n","jumpback":"0x6f8e8a36"},{"address":"0x6f8e8a50","returntype":"undefined","params":[{"type":"undefined4","size":4,"name":"param_1","location":"ECX","idx":0},{"type":"char *","size":4,"name":"param_2","location":"EDX","idx":1},{"type":"int","size":4,"name":"param_3","location":"Stack[0x04]","idx":2},{"type":"int","size":4,"name":"param_4","location":"Stack[0x08]","idx":3}],"name":"Ordinal_10186","paramcount":4,"ASM":"SUB ESP,0x800\n","jumpback":"0x6f8e8a56"},{"address":"0x6f8e8ab0","returntype":"undefined","params":[{"type":"int *","size":4,"name":"param_1","location":"ECX","idx":0},{"type":"uint","size":4,"name":"param_2","location":"EDX","idx":1}],"name":"Ordinal_10079","paramcount":2,"ASM":"TEST ECX,ECX\nJNZ 0x6f8e8abb\nPUSH 0x262\n","jumpback":"0x6f8e8ab9"},{"address":"0x6f8e8b00","returntype":"undefined","params":[{"type":"int *","size":4,"name":"param_1","location":"ECX","idx":0}],"name":"Ordinal_10041","paramcount":1,"ASM":"PUSH ESI\nMOV ESI,ECX\nTEST ESI,ESI\n","jumpback":"0x6f8e8b05"},{"address":"0x6f8e8b50","returntype":"void","params":[],"name":"SetAnimationDelayByDifficulty","paramcount":0,"ASM":"PUSH ESI\nMOV ESI,EAX\nCALL 0x6f8e7786\n","jumpback":"0x6f8e8b58"},{"address":"0x6f8e8c60","returntype":"uint","params":[{"type":"UnitAny * *","size":4,"name":"ppUnit","location":"Stack[0x04]","idx":0}],"name":"CalculateUnitAnimationFrame","paramcount":1,"ASM":"PUSH EBP\nMOV EBP,dword ptr [ESP + 0x8]\n","jumpback":"0x6f8e8c65"},{"address":"0x6f8e8d70","returntype":"int","params":[{"type":"UIControl *","size":4,"name":"pControl","location":"ECX","idx":0}],"name":"RenderTextBoxControl","paramcount":1,"ASM":"SUB ESP,0x874\n","jumpback":"0x6f8e8d76"},{"address":"0x6f8e9200","returntype":"int","params":[{"type":"int *","size":4,"name":"param_1","location":"ECX","idx":0}],"name":"Ordinal_10103","paramcount":1,"ASM":"PUSH ESI\nMOV ESI,ECX\nTEST ESI,ESI\n","jumpback":"0x6f8e9205"},{"address":"0x6f8e9290","returntype":"undefined4","params":[{"type":"int *","size":4,"name":"param_1","location":"ECX","idx":0},{"type":"Unicode *","size":4,"name":"param_2","location":"EDX","idx":1},{"type":"int","size":4,"name":"param_3","location":"Stack[0x04]","idx":2},{"type":"undefined4","size":4,"name":"param_4","location":"Stack[0x08]","idx":3},{"type":"undefined1","size":1,"name":"param_5","location":"Stack[0x0C]","idx":4}],"name":"Ordinal_10125","paramcount":5,"ASM":"PUSH ECX\nPUSH EBP\nPUSH EDI\nMOV EDI,ECX\n","jumpback":"0x6f8e9295"},{"address":"0x6f8e93c0","returntype":"undefined4","params":[{"type":"int *","size":4,"name":"param_1","location":"ECX","idx":0},{"type":"Unicode *","size":4,"name":"param_2","location":"EDX","idx":1},{"type":"int","size":4,"name":"param_3","location":"Stack[0x04]","idx":2},{"type":"undefined1","size":1,"name":"param_4","location":"Stack[0x08]","idx":3},{"type":"int","size":4,"name":"param_5","location":"Stack[0x0C]","idx":4}],"name":"Ordinal_10000","paramcount":5,"ASM":"SUB ESP,0x810\n","jumpback":"0x6f8e93c6"},{"address":"0x6f8e9730","returntype":"undefined","params":[{"type":"int *","size":4,"name":"param_1","location":"ECX","idx":0},{"type":"Unicode *","size":4,"name":"param_2","location":"EDX","idx":1}],"name":"Ordinal_10020","paramcount":2,"ASM":"PUSH 0x0\nPUSH 0x0\nPUSH 0x4\n","jumpback":"0x6f8e9736"},{"address":"0x6f8e9740","returntype":"undefined","params":[{"type":"int *","size":4,"name":"param_1","location":"ECX","idx":0},{"type":"char *","size":4,"name":"param_2","location":"EDX","idx":1},{"type":"int","size":4,"name":"param_3","location":"Stack[0x04]","idx":2}],"name":"Ordinal_10022","paramcount":3,"ASM":"SUB ESP,0x800\n","jumpback":"0x6f8e9746"},{"address":"0x6f8e97c0","returntype":"undefined","params":[{"type":"int *","size":4,"name":"param_1","location":"ECX","idx":0},{"type":"char *","size":4,"name":"param_2","location":"EDX","idx":1}],"name":"Ordinal_10167","paramcount":2,"ASM":"SUB ESP,0x800\n","jumpback":"0x6f8e97c6"},{"address":"0x6f8e9840","returntype":"int","params":[{"type":"UIControl * *","size":4,"name":"ppControlWrapper","location":"Stack[0x04]","idx":0}],"name":"ProcessScrollbarKeyboardInput","paramcount":1,"ASM":"PUSH ECX\nMOV EAX,dword ptr [ESP + 0x8]\n","jumpback":"0x6f8e9845"},{"address":"0x6f8e99f0","returntype":"int","params":[{"type":"UIControl *","size":4,"name":"pControl","location":"ECX","idx":0},{"type":"Unicode *","size":4,"name":"pText","location":"EDX","idx":1},{"type":"int","size":4,"name":"unused","location":"Stack[0x04]","idx":2},{"type":"int","size":4,"name":"wrapMode","location":"Stack[0x08]","idx":3}],"name":"WrapTextBoxLine","paramcount":4,"ASM":"SUB ESP,0x20\nTEST ECX,ECX\n","jumpback":"0x6f8e99f5"},{"address":"0x6f8e9c00","returntype":"int *","params":[{"type":"int","size":4,"name":"param_1","location":"ECX","idx":0},{"type":"int","size":4,"name":"param_2","location":"EDX","idx":1},{"type":"int","size":4,"name":"param_3","location":"Stack[0x04]","idx":2},{"type":"int","size":4,"name":"param_4","location":"Stack[0x08]","idx":3},{"type":"int","size":4,"name":"param_5","location":"Stack[0x0C]","idx":4},{"type":"int","size":4,"name":"param_6","location":"Stack[0x10]","idx":5},{"type":"int","size":4,"name":"param_7","location":"Stack[0x14]","idx":6},{"type":"int","size":4,"name":"param_8","location":"Stack[0x18]","idx":7},{"type":"uint","size":4,"name":"param_9","location":"Stack[0x1C]","idx":8},{"type":"int *","size":4,"name":"param_10","location":"Stack[0x20]","idx":9},{"type":"int *","size":4,"name":"param_11","location":"Stack[0x24]","idx":10}],"name":"Ordinal_10204","paramcount":11,"ASM":"SUB ESP,0x8\nPUSH EBX\nPUSH EBP\n","jumpback":"0x6f8e9c05"},{"address":"0x6f8e9e10","returntype":"int","params":[{"type":"TimerCallbackConfig * *","size":4,"name":"ppConfig","location":"Stack[0x04]","idx":0}],"name":"ValidateScreenCoordinatesAndFindCell","paramcount":1,"ASM":"MOV EAX,dword ptr [ESP + 0x4]\nPUSH ESI\n","jumpback":"0x6f8e9e15"},{"address":"0x6f8e9ee0","returntype":"undefined4","params":[{"type":"int *","size":4,"name":"param_1","location":"ECX","idx":0},{"type":"char *","size":4,"name":"param_2","location":"EDX","idx":1}],"name":"Ordinal_10197","paramcount":2,"ASM":"CMP dword ptr [ECX],0xc\nJZ 0x6f8e9f04\n","jumpback":"0x6f8e9ee5"},{"address":"0x6f8e9f30","returntype":"undefined4","params":[{"type":"int *","size":4,"name":"param_1","location":"ECX","idx":0},{"type":"byte *","size":4,"name":"param_2","location":"EDX","idx":1}],"name":"Ordinal_10137","paramcount":2,"ASM":"PUSH ECX\nCMP dword ptr [ECX],0xc\nMOV dword ptr [ESP],EDX\n","jumpback":"0x6f8e9f37"},{"address":"0x6f8e9ff0","returntype":"undefined","params":[{"type":"int *","size":4,"name":"param_1","location":"ECX","idx":0},{"type":"char *","size":4,"name":"param_2","location":"EDX","idx":1}],"name":"Ordinal_10038","paramcount":2,"ASM":"PUSH EBX\nPUSH EDI\nMOV EDI,ECX\nCMP dword ptr [EDI],0xc\n","jumpback":"0x6f8e9ff7"},{"address":"0x6f8ea050","returntype":"undefined","params":[{"type":"int *","size":4,"name":"param_1","location":"ECX","idx":0}],"name":"Ordinal_10084","paramcount":1,"ASM":"CMP dword ptr [ECX],0xc\nJZ 0x6f8ea071\n","jumpback":"0x6f8ea055"},{"address":"0x6f8ea0a0","returntype":"undefined","params":[{"type":"int *","size":4,"name":"param_1","location":"ECX","idx":0}],"name":"Ordinal_10130","paramcount":1,"ASM":"PUSH ESI\nMOV ESI,ECX\nCMP dword ptr [ESI],0xc\n","jumpback":"0x6f8ea0a6"},{"address":"0x6f8ea0e0","returntype":"int","params":[{"type":"UIControl *","size":4,"name":"pControl","location":"ECX","idx":0}],"name":"RenderListBoxControl","paramcount":1,"ASM":"SUB ESP,0x20c\n","jumpback":"0x6f8ea0e6"},{"address":"0x6f8ea250","returntype":"undefined4 *","params":[{"type":"undefined4","size":4,"name":"param_1","location":"ECX","idx":0},{"type":"undefined4","size":4,"name":"param_2","location":"EDX","idx":1},{"type":"undefined4","size":4,"name":"param_3","location":"Stack[0x04]","idx":2},{"type":"undefined4","size":4,"name":"param_4","location":"Stack[0x08]","idx":3},{"type":"undefined4","size":4,"name":"param_5","location":"Stack[0x0C]","idx":4},{"type":"undefined4 *","size":4,"name":"param_6","location":"Stack[0x10]","idx":5}],"name":"Ordinal_10169","paramcount":6,"ASM":"PUSH EBX\nPUSH EBP\nPUSH ESI\nPUSH EDI\nXOR ESI,ESI\n","jumpback":"0x6f8ea256"},{"address":"0x6f8ea340","returntype":"undefined","params":[],"name":"Ordinal_10088","paramcount":0,"ASM":"MOV EAX,[0x6f9a9cd8]\n","jumpback":"0x6f8ea345"},{"address":"0x6f8ea470","returntype":"bool","params":[],"name":"Ordinal_10165","paramcount":0,"ASM":"SUB ESP,0x104\n","jumpback":"0x6f8ea476"},{"address":"0x6f8ea4f0","returntype":"undefined4","params":[],"name":"Ordinal_10016","paramcount":0,"ASM":"XOR EAX,EAX\nRET\n","jumpback":""},{"address":"0x6f8ea500","returntype":"undefined","params":[],"name":"Ordinal_10158","paramcount":0,"ASM":"MOV EAX,[0x6f9a9ccc]\n","jumpback":"0x6f8ea505"},{"address":"0x6f8ea690","returntype":"bool","params":[],"name":"Ordinal_10113","paramcount":0,"ASM":"PUSH 0x31\nPUSH 0x6f8fd0c4\n","jumpback":"0x6f8ea697"},{"address":"0x6f8ea6b0","returntype":"bool","params":[],"name":"Ordinal_10139","paramcount":0,"ASM":"PUSH 0x31\nPUSH 0x6f8fd0c4\n","jumpback":"0x6f8ea6b7"},{"address":"0x6f8ea6d0","returntype":"bool","params":[],"name":"Ordinal_10073","paramcount":0,"ASM":"PUSH 0x31\nPUSH 0x6f8fd0c4\n","jumpback":"0x6f8ea6d7"},{"address":"0x6f8ea6f0","returntype":"undefined","params":[{"type":"int","size":4,"name":"param_1","location":"ECX","idx":0}],"name":"Ordinal_10126","paramcount":1,"ASM":"PUSH ESI\nMOV ESI,ECX\nPUSH ESI\nCALL 0x6f8e777a\n","jumpback":"0x6f8ea6f9"},{"address":"0x6f8ea710","returntype":"undefined4","params":[{"type":"char *","size":4,"name":"param_1","location":"ECX","idx":0},{"type":"undefined4 *","size":4,"name":"param_2","location":"EDX","idx":1},{"type":"undefined4","size":4,"name":"param_3","location":"Stack[0x04]","idx":2}],"name":"Ordinal_10180","paramcount":3,"ASM":"SUB ESP,0x108\n","jumpback":"0x6f8ea716"},{"address":"0x6f8ea7a0","returntype":"char *","params":[{"type":"char *","size":4,"name":"param_1","location":"ECX","idx":0},{"type":"undefined4","size":4,"name":"param_2","location":"EDX","idx":1}],"name":"Ordinal_10111","paramcount":2,"ASM":"SUB ESP,0x108\n","jumpback":"0x6f8ea7a6"},{"address":"0x6f8ea820","returntype":"undefined4","params":[{"type":"undefined *","size":4,"name":"param_1","location":"ECX","idx":0},{"type":"undefined4","size":4,"name":"param_2","location":"EDX","idx":1},{"type":"int","size":4,"name":"param_3","location":"Stack[0x04]","idx":2}],"name":"Ordinal_10173","paramcount":3,"ASM":"PUSH ESI\nPUSH EDI\nMOV EDI,EDX\nMOV ESI,ECX\n","jumpback":"0x6f8ea826"},{"address":"0x6f8ea890","returntype":"undefined4","params":[{"type":"undefined *","size":4,"name":"param_1","location":"ECX","idx":0},{"type":"undefined *","size":4,"name":"param_2","location":"EDX","idx":1},{"type":"undefined4","size":4,"name":"param_3","location":"Stack[0x04]","idx":2},{"type":"int","size":4,"name":"param_4","location":"Stack[0x08]","idx":3}],"name":"Ordinal_10005","paramcount":4,"ASM":"PUSH ESI\nPUSH EDI\nMOV EDI,EDX\nMOV ESI,ECX\n","jumpback":"0x6f8ea896"},{"address":"0x6f8eaa20","returntype":"undefined4","params":[{"type":"uint","size":4,"name":"param_1","location":"Stack[0x04]","idx":0}],"name":"Ordinal_10086","paramcount":1,"ASM":"PUSH 0x0\nPUSH 0x0\nPUSH 0x6f8fd078\n","jumpback":"0x6f8eaa29"},{"address":"0x6f8eab50","returntype":"uint","params":[{"type":"TimerCallbackConfig * *","size":4,"name":"ppTimerConfig","location":"Stack[0x04]","idx":0}],"name":"ResetTimerCallbackReservedFields","paramcount":1,"ASM":"MOV EAX,dword ptr [ESP + 0x4]\nMOV EAX,dword ptr [EAX]\n","jumpback":"0x6f8eab56"},{"address":"0x6f8eabb0","returntype":"int","params":[{"type":"int *","size":4,"name":"param_1","location":"ECX","idx":0}],"name":"Ordinal_10074","paramcount":1,"ASM":"CMP dword ptr [ECX],0x5\nJZ 0x6f8eabd4\n","jumpback":"0x6f8eabb5"},{"address":"0x6f8eabe0","returntype":"undefined","params":[{"type":"int *","size":4,"name":"param_1","location":"ECX","idx":0},{"type":"int","size":4,"name":"param_2","location":"EDX","idx":1}],"name":"Ordinal_10081","paramcount":2,"ASM":"CMP dword ptr [ECX],0x5\nJZ 0x6f8eac04\n","jumpback":"0x6f8eabe5"},{"address":"0x6f8eac10","returntype":"int","params":[{"type":"UnitAny *","size":4,"name":"pUnit","location":"EBX","idx":0},{"type":"int","size":4,"name":"animFlags","location":"Stack[0x04]","idx":1}],"name":"SetPlayerAnimationFlags","paramcount":2,"ASM":"CMP dword ptr [EAX],0x5\nJZ 0x6f8eac34\n","jumpback":"0x6f8eac15"},{"address":"0x6f8eac50","returntype":"undefined4","params":[{"type":"int *","size":4,"name":"param_1","location":"ECX","idx":0},{"type":"int","size":4,"name":"param_2","location":"EDX","idx":1}],"name":"Ordinal_10077","paramcount":2,"ASM":"CMP dword ptr [ECX],0x5\nJZ 0x6f8eac71\n","jumpback":"0x6f8eac55"},{"address":"0x6f8eac80","returntype":"int","params":[{"type":"int *","size":4,"name":"param_1","location":"ECX","idx":0}],"name":"Ordinal_10188","paramcount":1,"ASM":"CMP dword ptr [ECX],0x5\nJZ 0x6f8eaca1\n","jumpback":"0x6f8eac85"},{"address":"0x6f8eacb0","returntype":"undefined4","params":[{"type":"int *","size":4,"name":"param_1","location":"ECX","idx":0},{"type":"int","size":4,"name":"param_2","location":"EDX","idx":1}],"name":"Ordinal_10189","paramcount":2,"ASM":"CMP dword ptr [ECX],0x5\nJZ 0x6f8eacd1\n","jumpback":"0x6f8eacb5"},{"address":"0x6f8eacf0","returntype":"undefined4","params":[{"type":"int *","size":4,"name":"param_1","location":"ECX","idx":0},{"type":"uint","size":4,"name":"param_2","location":"EDX","idx":1}],"name":"Ordinal_10163","paramcount":2,"ASM":"CMP dword ptr [ECX],0x5\nJZ 0x6f8ead11\n","jumpback":"0x6f8eacf5"},{"address":"0x6f8ead30","returntype":"int","params":[{"type":"int *","size":4,"name":"param_1","location":"ECX","idx":0}],"name":"Ordinal_10009","paramcount":1,"ASM":"CMP dword ptr [ECX],0x5\nJZ 0x6f8ead51\n","jumpback":"0x6f8ead35"},{"address":"0x6f8ead60","returntype":"uint","params":[{"type":"ScrollbarControl * *","size":4,"name":"ppScrollbar","location":"Stack[0x04]","idx":0}],"name":"ProcessScrollbarMouseEvent","paramcount":1,"ASM":"PUSH ECX\nMOV EAX,dword ptr [ESP + 0x8]\n","jumpback":"0x6f8ead65"},{"address":"0x6f8eaf40","returntype":"int","params":[{"type":"ScrollbarControl *","size":4,"name":"pScrollbar","location":"ECX","idx":0}],"name":"RenderScrollbarControl","paramcount":1,"ASM":"SUB ESP,0x6c\nPUSH ESI\nMOV ESI,ECX\n","jumpback":"0x6f8eaf46"},{"address":"0x6f8eb0d0","returntype":"int","params":[{"type":"void *","size":4,"name":"this","location":"ECX","idx":0},{"type":"GameObjectNode *","size":4,"name":"pGameObject","location":"Stack[0x04]","idx":1},{"type":"int","size":4,"name":"nDirection","location":"Stack[0x08]","idx":2}],"name":"NavigateGameObjectSelection","paramcount":3,"ASM":"PUSH ESI\nMOV ESI,ECX\nCMP dword ptr [ESI],0x5\n","jumpback":"0x6f8eb0d6"},{"address":"0x6f8eb160","returntype":"undefined4 *","params":[{"type":"undefined4","size":4,"name":"param_1","location":"ECX","idx":0},{"type":"undefined4","size":4,"name":"param_2","location":"EDX","idx":1},{"type":"undefined4","size":4,"name":"param_3","location":"Stack[0x04]","idx":2},{"type":"undefined4","size":4,"name":"param_4","location":"Stack[0x08]","idx":3},{"type":"undefined4","size":4,"name":"param_5","location":"Stack[0x0C]","idx":4},{"type":"undefined4","size":4,"name":"param_6","location":"Stack[0x10]","idx":5}],"name":"Ordinal_10157","paramcount":6,"ASM":"PUSH EBX\nPUSH EBP\nPUSH ESI\nPUSH EDI\nXOR ESI,ESI\n","jumpback":"0x6f8eb166"},{"address":"0x6f8eb240","returntype":"int","params":[{"type":"int *","size":4,"name":"pControl","location":"ECX","idx":0}],"name":"Ordinal_10075","paramcount":1,"ASM":"JMP 0x6f8f7fc0\n","jumpback":""},{"address":"0x6f8eb250","returntype":"void","params":[{"type":"int","size":4,"name":"screenshotIndex","location":"ECX","idx":0},{"type":"char *","size":4,"name":"pFilePath","location":"EDX","idx":1}],"name":"SaveScreenshotToFile","paramcount":2,"ASM":"SUB ESP,0x104\n","jumpback":"0x6f8eb256"},{"address":"0x6f8eb340","returntype":"undefined","params":[{"type":"undefined4 *","size":4,"name":"param_1","location":"Stack[0x04]","idx":0},{"type":"undefined4","size":4,"name":"param_2","location":"Stack[0x08]","idx":1}],"name":"Ordinal_10194","paramcount":2,"ASM":"MOV EAX,dword ptr [ESP + 0x4]\nTEST EAX,EAX\n","jumpback":"0x6f8eb346"},{"address":"0x6f8eb370","returntype":"undefined4","params":[{"type":"undefined4 *","size":4,"name":"param_1","location":"Stack[0x04]","idx":0}],"name":"Ordinal_10023","paramcount":1,"ASM":"MOV EAX,dword ptr [ESP + 0x4]\nTEST EAX,EAX\n","jumpback":"0x6f8eb376"},{"address":"0x6f8eb3a0","returntype":"undefined","params":[{"type":"int","size":4,"name":"param_1","location":"Stack[0x04]","idx":0},{"type":"undefined4","size":4,"name":"param_2","location":"Stack[0x08]","idx":1}],"name":"Ordinal_10179","paramcount":2,"ASM":"MOV EAX,dword ptr [ESP + 0x4]\nTEST EAX,EAX\n","jumpback":"0x6f8eb3a6"},{"address":"0x6f8eb3e0","returntype":"undefined","params":[{"type":"int","size":4,"name":"param_1","location":"Stack[0x04]","idx":0},{"type":"undefined4","size":4,"name":"param_2","location":"Stack[0x08]","idx":1}],"name":"Ordinal_10140","paramcount":2,"ASM":"MOV EAX,dword ptr [ESP + 0x4]\nTEST EAX,EAX\n","jumpback":"0x6f8eb3e6"},{"address":"0x6f8eb420","returntype":"undefined4","params":[{"type":"int","size":4,"name":"param_1","location":"Stack[0x04]","idx":0}],"name":"Ordinal_10121","paramcount":1,"ASM":"MOV EAX,dword ptr [ESP + 0x4]\nTEST EAX,EAX\n","jumpback":"0x6f8eb426"},{"address":"0x6f8eb450","returntype":"undefined1","params":[{"type":"int","size":4,"name":"param_1","location":"Stack[0x04]","idx":0}],"name":"Ordinal_10018","paramcount":1,"ASM":"MOV EAX,dword ptr [ESP + 0x4]\nTEST EAX,EAX\n","jumpback":"0x6f8eb456"},{"address":"0x6f8eb480","returntype":"undefined4","params":[{"type":"int","size":4,"name":"param_1","location":"Stack[0x04]","idx":0}],"name":"Ordinal_10007","paramcount":1,"ASM":"MOV EAX,dword ptr [ESP + 0x4]\nTEST EAX,EAX\n","jumpback":"0x6f8eb486"},{"address":"0x6f8eb4b0","returntype":"undefined4","params":[],"name":"Ordinal_10072","paramcount":0,"ASM":"MOV EAX,[0x6f9a9e30]\n","jumpback":"0x6f8eb4b5"},{"address":"0x6f8eb4c0","returntype":"undefined","params":[{"type":"undefined4","size":4,"name":"param_1","location":"Stack[0x04]","idx":0}],"name":"Ordinal_10101","paramcount":1,"ASM":"MOV EAX,dword ptr [ESP + 0x4]\nPUSH EAX\n","jumpback":"0x6f8eb4c5"},{"address":"0x6f8eb4f0","returntype":"int","params":[{"type":"int","size":4,"name":"startItemType","location":"EBX","idx":0},{"type":"int","size":4,"name":"targetItemType","location":"EAX","idx":1}],"name":"CheckItemTypeCompatibility","paramcount":2,"ASM":"SUB ESP,0x100\n","jumpback":"0x6f8eb4f6"},{"address":"0x6f8eb5a0","returntype":"void","params":[],"name":"CleanupComponentDescriptionLists","paramcount":0,"ASM":"MOV EAX,[0x6f9a8ca0]\n","jumpback":"0x6f8eb5a5"},{"address":"0x6f8eb600","returntype":"void","params":[],"name":"TriggerDebugAssertion_D2Comp_Line2350","paramcount":0,"ASM":"PUSH 0x0\nPUSH 0x92e\n","jumpback":"0x6f8eb607"},{"address":"0x6f8eb620","returntype":"uint","params":[{"type":"uint","size":4,"name":"unusedEcx","location":"ECX","idx":0},{"type":"int","size":4,"name":"itemTypeCode","location":"EDX","idx":1}],"name":"LookupItemTypeCode","paramcount":2,"ASM":"MOV ECX,dword ptr [0x6f900c6c]\n","jumpback":"0x6f8eb626"},{"address":"0x6f8eb650","returntype":"undefined","params":[{"type":"int","size":4,"name":"param_1","location":"Stack[0x04]","idx":0},{"type":"Unicode *","size":4,"name":"param_2","location":"Stack[0x08]","idx":1},{"type":"Unicode *","size":4,"name":"param_3","location":"Stack[0x0C]","idx":2},{"type":"Unicode *","size":4,"name":"param_4","location":"Stack[0x10]","idx":3},{"type":"Unicode *","size":4,"name":"param_5","location":"Stack[0x14]","idx":4},{"type":"undefined4","size":4,"name":"param_6","location":"Stack[0x18]","idx":5},{"type":"undefined4","size":4,"name":"param_7","location":"Stack[0x1C]","idx":6}],"name":"Ordinal_10082","paramcount":7,"ASM":"PUSH ESI\nMOV ESI,dword ptr [ESP + 0x8]\n","jumpback":"0x6f8eb655"},{"address":"0x6f8eb6d0","returntype":"ScreenshotConfig *","params":[],"name":"InitializeScreenshotConfig","paramcount":0,"ASM":"PUSH 0x0\nPUSH 0x85b\n","jumpback":"0x6f8eb6d7"},{"address":"0x6f8eb710","returntype":"void","params":[{"type":"void *","size":4,"name":"pNode","location":"ECX","idx":0}],"name":"RemoveNodeFromLinkedList","paramcount":1,"ASM":"MOV EDX,dword ptr [ECX + 0xc8]\n","jumpback":"0x6f8eb716"},{"address":"0x6f8eb780","returntype":"uint","params":[{"type":"uint","size":4,"name":"eax_enumValue","location":"Stack[0x04]","idx":0}],"name":"ValidateEnumValue","paramcount":1,"ASM":"CMP EAX,0x9\nJA 0x6f8eb796\n","jumpback":"0x6f8eb785"},{"address":"0x6f8eb7b0","returntype":"byte","params":[],"name":"ValidateBitFieldTableIndex","paramcount":0,"ASM":"PUSH ECX\nCMP CL,0x40\nJC 0x6f8eb7bd\n","jumpback":"0x6f8eb7b6"},{"address":"0x6f8eb810","returntype":"ChatUINode *","params":[{"type":"uint","size":4,"name":"packedIndex","location":"ECX","idx":0}],"name":"GetChatUINodeByPackedIndex","paramcount":1,"ASM":"MOV EAX,ECX\nSAR EAX,0x5\n","jumpback":"0x6f8eb815"},{"address":"0x6f8eb860","returntype":"ScreenshotListNode *","params":[{"type":"ScreenshotListNode * *","size":4,"name":"pListHead","location":"ECX","idx":0},{"type":"int","size":4,"name":"nScreenshotId","location":"EDX","idx":1},{"type":"int","size":4,"name":"nContextId","location":"Stack[0x04]","idx":2}],"name":"FindScreenshotNodeById","paramcount":3,"ASM":"TEST EAX,EAX\nJNZ 0x6f8eb883\nPUSH 0x4a5\n","jumpback":"0x6f8eb869"},{"address":"0x6f8eb8b0","returntype":"void","params":[{"type":"uint","size":4,"name":"componentIndex","location":"EBX","idx":0},{"type":"uint","size":4,"name":"weaponClass","location":"Stack[0x04]","idx":1},{"type":"byte","size":1,"name":"modeCode","location":"Stack[0x08]","idx":2},{"type":"char *","size":4,"name":"pOutputBuffer","location":"Stack[0x0C]","idx":3}],"name":"BuildCofFilePath","paramcount":4,"ASM":"MOV EDX,dword ptr [ESP + 0x4]\nSUB ESP,0x18\n","jumpback":"0x6f8eb8b7"},{"address":"0x6f8eba00","returntype":"void","params":[{"type":"int","size":4,"name":"bForceRelease","location":"Stack[0x04]","idx":0}],"name":"ReleaseScreenshotNode","paramcount":1,"ASM":"TEST ESI,ESI\nJNZ 0x6f8eba23\nPUSH 0x44a\n","jumpback":"0x6f8eba09"},{"address":"0x6f8ebaa0","returntype":"ScreenshotCacheNode *","params":[{"type":"int","size":4,"name":"param3","location":"ECX","idx":0},{"type":"int","size":4,"name":"param1","location":"EDX","idx":1},{"type":"int","size":4,"name":"param2","location":"Stack[0x04]","idx":2}],"name":"FindScreenshotCacheNode","paramcount":3,"ASM":"MOV EAX,[0x6f9a9e34]\n","jumpback":"0x6f8ebaa5"},{"address":"0x6f8ebad0","returntype":"void","params":[],"name":"ValidateScreenshotPointer","paramcount":0,"ASM":"TEST EAX,EAX\nJNZ 0x6f8ebaf3\nPUSH 0x3d2\n","jumpback":"0x6f8ebad9"},{"address":"0x6f8ebb00","returntype":"void","params":[{"type":"char *","size":4,"name":"pOutput","location":"ECX","idx":0},{"type":"char *","size":4,"name":"pSource","location":"EDX","idx":1}],"name":"PadStringToFourBytes","paramcount":2,"ASM":"MOV CL,byte ptr [EDX]\nTEST CL,CL\nJNZ 0x6f8ebb14\n","jumpback":"0x6f8ebb06"},{"address":"0x6f8ebb50","returntype":"char *","params":[{"type":"undefined4","size":4,"name":"param_1","location":"Stack[0x04]","idx":0},{"type":"undefined4","size":4,"name":"param_2","location":"Stack[0x08]","idx":1},{"type":"int","size":4,"name":"param_3","location":"Stack[0x0C]","idx":2}],"name":"Ordinal_10132","paramcount":3,"ASM":"MOV EAX,dword ptr [ESP + 0xc]\nTEST EAX,EAX\n","jumpback":"0x6f8ebb56"},{"address":"0x6f8ebd00","returntype":"undefined","params":[{"type":"undefined4","size":4,"name":"param_1","location":"Stack[0x04]","idx":0},{"type":"int","size":4,"name":"param_2","location":"Stack[0x08]","idx":1},{"type":"int","size":4,"name":"param_3","location":"Stack[0x0C]","idx":2},{"type":"int","size":4,"name":"param_4","location":"Stack[0x10]","idx":3}],"name":"Ordinal_10205","paramcount":4,"ASM":"MOV ECX,dword ptr [ESP + 0x10]\nTEST ECX,ECX\n","jumpback":"0x6f8ebd06"},{"address":"0x6f8ebd70","returntype":"void","params":[],"name":"InitializeColorTables","paramcount":0,"ASM":"PUSH ESI\nPUSH EDI\nXOR EDI,EDI\nMOV ESI,0x6f8ffe9d\n","jumpback":"0x6f8ebd79"},{"address":"0x6f8ebe00","returntype":"undefined","params":[],"name":"Ordinal_10200","paramcount":0,"ASM":"MOV ECX,0x1\n","jumpback":"0x6f8ebe05"},{"address":"0x6f8ebe80","returntype":"undefined","params":[{"type":"int","size":4,"name":"param_1","location":"Stack[0x04]","idx":0},{"type":"byte","size":1,"name":"param_2","location":"Stack[0x08]","idx":1},{"type":"byte","size":1,"name":"param_3","location":"Stack[0x0C]","idx":2},{"type":"byte","size":1,"name":"param_4","location":"Stack[0x10]","idx":3}],"name":"Ordinal_10183","paramcount":4,"ASM":"SUB ESP,0x200\n","jumpback":"0x6f8ebe86"},{"address":"0x6f8ebf60","returntype":"void","params":[{"type":"int","size":4,"name":"itemType","location":"Stack[0x04]","idx":0},{"type":"byte *","size":4,"name":"pArmorTypeIndex","location":"Stack[0x08]","idx":1}],"name":"ValidateAndCycleArmorType","paramcount":2,"ASM":"PUSH EBX\nMOV EBX,EAX\nCMP EBX,0x1\n","jumpback":"0x6f8ebf66"},{"address":"0x6f8ec180","returntype":"int","params":[{"type":"int","size":4,"name":"bodyLocationFlag","location":"Stack[0x04]","idx":0}],"name":"GetItemTypeCategoryFromBodyLocations","paramcount":1,"ASM":"PUSH ECX\nMOV AL,byte ptr [EBX + 0x5]\nCMP AL,0xff\n","jumpback":"0x6f8ec186"},{"address":"0x6f8ec410","returntype":"undefined4","params":[{"type":"int","size":4,"name":"param_1","location":"ECX","idx":0},{"type":"int","size":4,"name":"param_2","location":"EDX","idx":1}],"name":"Ordinal_10093","paramcount":2,"ASM":"TEST ECX,ECX\nJNZ 0x6f8ec433\nPUSH 0x8b4\n","jumpback":"0x6f8ec419"},{"address":"0x6f8ec4a0","returntype":"undefined","params":[{"type":"int","size":4,"name":"param_1","location":"Stack[0x04]","idx":0},{"type":"int","size":4,"name":"param_2","location":"Stack[0x08]","idx":1}],"name":"Ordinal_10054","paramcount":2,"ASM":"PUSH EBX\nMOV EBX,dword ptr [ESP + 0x8]\n","jumpback":"0x6f8ec4a5"},{"address":"0x6f8ec590","returntype":"int","params":[{"type":"Unicode *","size":4,"name":"pUnicodeString","location":"Stack[0x04]","idx":0},{"type":"int","size":4,"name":"maxPixelWidth","location":"Stack[0x08]","idx":1}],"name":"TruncateUnicodeStringToPixelWidth","paramcount":2,"ASM":"SUB ESP,0x138\n","jumpback":"0x6f8ec596"},{"address":"0x6f8ec680","returntype":"void","params":[{"type":"ScreenshotNode *","size":4,"name":"pScreenshotData","location":"Stack[0x04]","idx":0},{"type":"int","size":4,"name":"width","location":"Stack[0x08]","idx":1},{"type":"int","size":4,"name":"height","location":"Stack[0x0C]","idx":2}],"name":"ValidateScreenshotBoundsOrDie","paramcount":3,"ASM":"TEST EAX,EAX\nJNZ 0x6f8ec68b\nPUSH 0x3f5\n","jumpback":"0x6f8ec689"},{"address":"0x6f8ec6e0","returntype":"void","params":[{"type":"ScreenshotNode *","size":4,"name":"pScreenshotNode","location":"Stack[0x04]","idx":0}],"name":"ValidateScreenshotOrExit","paramcount":1,"ASM":"PUSH EAX\nMOV EAX,dword ptr [ESP + 0x8]\n","jumpback":"0x6f8ec6e5"},{"address":"0x6f8ec720","returntype":"undefined","params":[{"type":"int","size":4,"name":"param_1","location":"Stack[0x04]","idx":0},{"type":"uint","size":4,"name":"param_2","location":"Stack[0x08]","idx":1}],"name":"Ordinal_10172","paramcount":2,"ASM":"PUSH ESI\nMOV ESI,dword ptr [ESP + 0x8]\n","jumpback":"0x6f8ec725"},{"address":"0x6f8ec770","returntype":"undefined","params":[{"type":"int","size":4,"name":"param_1","location":"Stack[0x04]","idx":0},{"type":"byte","size":1,"name":"param_2","location":"Stack[0x08]","idx":1}],"name":"Ordinal_10080","paramcount":2,"ASM":"PUSH ESI\nMOV ESI,dword ptr [ESP + 0x8]\n","jumpback":"0x6f8ec775"},{"address":"0x6f8ec7c0","returntype":"undefined","params":[],"name":"Ordinal_10123","paramcount":0,"ASM":"PUSH ESI\nMOV ESI,dword ptr [0x6f9a9e30]\n","jumpback":"0x6f8ec7c7"},{"address":"0x6f8ec810","returntype":"void *","params":[{"type":"ScreenshotConfig *","size":4,"name":"pConfig","location":"Stack[0x04]","idx":0},{"type":"char *","size":4,"name":"szFilename","location":"Stack[0x08]","idx":1},{"type":"int *","size":4,"name":"pOutWidth","location":"Stack[0x0C]","idx":2},{"type":"int","size":4,"name":"nHeight","location":"Stack[0x10]","idx":3}],"name":"CreateExcelDataScreenshot","paramcount":4,"ASM":"SUB ESP,0x108\n","jumpback":"0x6f8ec816"},{"address":"0x6f8ec980","returntype":"void","params":[{"type":"Unicode *","size":4,"name":"pTextSource","location":"EDI","idx":0},{"type":"byte *","size":4,"name":"pLineBuffer","location":"Stack[0x04]","idx":1},{"type":"Unicode *","size":4,"name":"pDestEntry","location":"Stack[0x08]","idx":2},{"type":"int *","size":4,"name":"pHeightAccumulator","location":"Stack[0x0C]","idx":3}],"name":"AddTooltipTextLine","paramcount":4,"ASM":"MOV EAX,dword ptr [EDI]\nPUSH EBP\nMOV EBP,dword ptr [ESP + 0xc]\n","jumpback":"0x6f8ec987"},{"address":"0x6f8eca00","returntype":"ScreenshotCacheNode *","params":[{"type":"typedef DWORD ulong","size":4,"name":"dwParam2","location":"Stack[0x04]","idx":0},{"type":"typedef LPVOID void *","size":4,"name":"lpOutputBuffer","location":"Stack[0x08]","idx":1}],"name":"GetOrCreateScreenshotCacheNode","paramcount":2,"ASM":"MOV EAX,[0x6f9a9e34]\n","jumpback":"0x6f8eca05"},{"address":"0x6f8ecae0","returntype":"void","params":[],"name":"InitializeExcelScreenshotGlobals","paramcount":0,"ASM":"SUB ESP,0x50\nXOR EAX,EAX\n","jumpback":"0x6f8ecae5"},{"address":"0x6f8ecba0","returntype":"void","params":[],"name":"InitializeComponentTables","paramcount":0,"ASM":"SUB ESP,0xf8\n","jumpback":"0x6f8ecba6"},{"address":"0x6f8ecfc0","returntype":"int","params":[{"type":"BattleNetChatUser *","size":4,"name":"pChatUser","location":"Stack[0x04]","idx":0}],"name":"RenderChatUserTooltip","paramcount":1,"ASM":"PUSH EBP\nMOV EBP,ESP\nAND ESP,0xfffffff8\n","jumpback":"0x6f8ecfc6"},{"address":"0x6f8ed4d0","returntype":"int","params":[{"type":"void *","size":4,"name":"pChatMsg","location":"Stack[0x04]","idx":0}],"name":"RenderChatMessageUI","paramcount":1,"ASM":"PUSH EBP\nMOV EBP,ESP\nAND ESP,0xfffffff8\n","jumpback":"0x6f8ed4d6"},{"address":"0x6f8ed790","returntype":"int *","params":[{"type":"void *","size":4,"name":"this","location":"ECX","idx":0},{"type":"ScreenshotListNode * *","size":4,"name":"ppScreenshotList","location":"Stack[0x04]","idx":1},{"type":"int","size":4,"name":"classId","location":"Stack[0x08]","idx":2},{"type":"int","size":4,"name":"cofComponent","location":"Stack[0x0C]","idx":3},{"type":"void *","size":4,"name":"pEntityId","location":"Stack[0x10]","idx":4}],"name":"GetOrLoadScreenshotImage","paramcount":5,"ASM":"PUSH EBP\nMOV EBP,ESP\nAND ESP,0xfffffff8\n","jumpback":"0x6f8ed796"},{"address":"0x6f8ed880","returntype":"void","params":[],"name":"InitializeItemPropertyTables","paramcount":0,"ASM":"MOV EAX,[0x6f9aa67c]\n","jumpback":"0x6f8ed885"},{"address":"0x6f8edff0","returntype":"int","params":[],"name":"ValidateAndLoadScreenshot","paramcount":0,"ASM":"TEST ESI,ESI\nJNZ 0x6f8ee013\nPUSH 0x80f\n","jumpback":"0x6f8edff9"},{"address":"0x6f8ee0d0","returntype":"void","params":[{"type":"int *","size":4,"name":"pInputConfig","location":"Stack[0x04]","idx":0},{"type":"void *","size":4,"name":"pScreenshotList","location":"Stack[0x08]","idx":1},{"type":"int *","size":4,"name":"pOutputParams","location":"Stack[0x0C]","idx":2}],"name":"InitializeScreenshotRenderParams","paramcount":3,"ASM":"PUSH ECX\nMOV ECX,dword ptr [EAX + 0x1c]\nMOV dword ptr [ESI + 0xc],ECX\n","jumpback":"0x6f8ee0d7"},{"address":"0x6f8ee240","returntype":"undefined","params":[{"type":"uint *","size":4,"name":"param_1","location":"Stack[0x04]","idx":0},{"type":"uint","size":4,"name":"param_2","location":"Stack[0x08]","idx":1},{"type":"uint","size":4,"name":"param_3","location":"Stack[0x0C]","idx":2},{"type":"byte *","size":4,"name":"param_4","location":"Stack[0x10]","idx":3},{"type":"char *","size":4,"name":"param_5","location":"Stack[0x14]","idx":4}],"name":"Ordinal_10168","paramcount":5,"ASM":"PUSH EBP\nMOV EBP,dword ptr [ESP + 0x8]\n","jumpback":"0x6f8ee245"},{"address":"0x6f8ee3c0","returntype":"uint *","params":[{"type":"uint","size":4,"name":"param_1","location":"Stack[0x04]","idx":0},{"type":"uint","size":4,"name":"param_2","location":"Stack[0x08]","idx":1},{"type":"byte *","size":4,"name":"param_3","location":"Stack[0x0C]","idx":2},{"type":"char *","size":4,"name":"param_4","location":"Stack[0x10]","idx":3}],"name":"Ordinal_10154","paramcount":4,"ASM":"PUSH EBP\nPUSH 0x0\nPUSH 0xc65\n","jumpback":"0x6f8ee3c8"},{"address":"0x6f8ee5c0","returntype":"void","params":[{"type":"ScreenshotRenderParams *","size":4,"name":"pParams","location":"Stack[0x04]","idx":0},{"type":"void *","size":4,"name":"pInputConfig","location":"Stack[0x08]","idx":1},{"type":"byte","size":1,"name":"bClassIndex","location":"Stack[0x0C]","idx":2}],"name":"SetupScreenshotRenderParams","paramcount":3,"ASM":"PUSH ESI\nMOV ESI,dword ptr [ESP + 0x8]\n","jumpback":"0x6f8ee5c5"},{"address":"0x6f8ee5f0","returntype":"typedef BOOL int","params":[{"type":"typedef DWORD ulong","size":4,"name":"dwRenderFlags","location":"Stack[0x04]","idx":0}],"name":"RenderAnimatedUIControl","paramcount":1,"ASM":"PUSH EBP\nMOV EBP,ESP\nAND ESP,0xfffffff8\n","jumpback":"0x6f8ee5f6"},{"address":"0x6f8ee920","returntype":"int","params":[{"type":"byte *","size":4,"name":"pClassIndexArray","location":"Stack[0x04]","idx":0},{"type":"int","size":4,"name":"nArrayOffset","location":"Stack[0x08]","idx":1},{"type":"int *","size":4,"name":"pTotalSize","location":"Stack[0x0C]","idx":2},{"type":"byte","size":1,"name":"bCharClass","location":"Stack[0x10]","idx":3},{"type":"int","size":4,"name":"nAnimFrame","location":"Stack[0x14]","idx":4}],"name":"CalculateScreenshotMemoryRequirements","paramcount":5,"ASM":"PUSH EBP\nMOV EBP,ESP\nAND ESP,0xfffffff8\n","jumpback":"0x6f8ee926"},{"address":"0x6f8eea30","returntype":"void","params":[{"type":"UIAnimatedControl *","size":4,"name":"pControl","location":"ECX","idx":0}],"name":"RenderAnimatedControlScreenshots","paramcount":1,"ASM":"PUSH EBP\nMOV EBP,ESP\nAND ESP,0xfffffff8\n","jumpback":"0x6f8eea36"},{"address":"0x6f8eeba0","returntype":"undefined4","params":[{"type":"int *","size":4,"name":"param_1","location":"Stack[0x04]","idx":0},{"type":"int","size":4,"name":"param_2","location":"Stack[0x08]","idx":1}],"name":"Ordinal_10063","paramcount":2,"ASM":"MOV EAX,dword ptr [ESP + 0x4]\nCMP dword ptr [EAX],0xa\n","jumpback":"0x6f8eeba7"},{"address":"0x6f8eebe0","returntype":"int","params":[{"type":"ScreenshotRenderParams *","size":4,"name":"pRenderParams","location":"ECX","idx":0}],"name":"RenderScreenshotRegion","paramcount":1,"ASM":"PUSH ECX\nPUSH ESI\nMOV ESI,ECX\nCMP dword ptr [ESI],0xa\n","jumpback":"0x6f8eebe7"},{"address":"0x6f8eec70","returntype":"undefined4 *","params":[{"type":"undefined4","size":4,"name":"param_1","location":"ECX","idx":0},{"type":"undefined4","size":4,"name":"param_2","location":"EDX","idx":1},{"type":"undefined4","size":4,"name":"param_3","location":"Stack[0x04]","idx":2},{"type":"undefined4","size":4,"name":"param_4","location":"Stack[0x08]","idx":3}],"name":"Ordinal_10045","paramcount":4,"ASM":"PUSH EBX\nPUSH EBP\nPUSH ESI\nPUSH EDI\nXOR ESI,ESI\n","jumpback":"0x6f8eec76"},{"address":"0x6f8eed30","returntype":"int","params":[{"type":"int *","size":4,"name":"pControl","location":"ECX","idx":0}],"name":"Ordinal_10092","paramcount":1,"ASM":"JMP 0x6f8f7fc0\n","jumpback":""},{"address":"0x6f8eed40","returntype":"undefined","params":[{"type":"undefined4 *","size":4,"name":"param_1","location":"ECX","idx":0}],"name":"Ordinal_10043","paramcount":1,"ASM":"PUSH ESI\nPUSH EDI\nMOV EDI,ECX\nMOV ECX,0xc40\n","jumpback":"0x6f8eed49"},{"address":"0x6f8eed60","returntype":"void","params":[],"name":"InvalidateUIColorTable","paramcount":0,"ASM":"PUSH 0x6f922338\n","jumpback":"0x6f8eed65"},{"address":"0x6f8eed70","returntype":"undefined","params":[{"type":"undefined1","size":1,"name":"param_1","location":"Stack[0x04]","idx":0},{"type":"undefined1","size":1,"name":"param_2","location":"Stack[0x08]","idx":1},{"type":"undefined1","size":1,"name":"param_3","location":"Stack[0x0C]","idx":2}],"name":"Ordinal_10190","paramcount":3,"ASM":"MOVZX EAX,byte ptr [ESP + 0xc]\n","jumpback":"0x6f8eed75"},{"address":"0x6f8eeda0","returntype":"undefined","params":[{"type":"int","size":4,"name":"param_1","location":"ECX","idx":0}],"name":"Ordinal_10153","paramcount":1,"ASM":"XOR EAX,EAX\nCMP ECX,EAX\nJZ 0x6f8eedda\n","jumpback":"0x6f8eeda6"},{"address":"0x6f8eedf0","returntype":"undefined","params":[],"name":"Ordinal_10062","paramcount":0,"ASM":"MOV EAX,[0x6f8ffd44]\n","jumpback":"0x6f8eedf5"},{"address":"0x6f8eee50","returntype":"undefined4 *","params":[{"type":"int","size":4,"name":"param_1","location":"ECX","idx":0}],"name":"Ordinal_10164","paramcount":1,"ASM":"MOV EAX,ECX\nSHL EAX,0x8\n","jumpback":"0x6f8eee55"},{"address":"0x6f8eee60","returntype":"void","params":[],"name":"InitializePointerArraysAndCallOrdinal10022","paramcount":0,"ASM":"SUB ESP,0x120\n","jumpback":"0x6f8eee66"},{"address":"0x6f8eef20","returntype":"uint","params":[{"type":"char *","size":4,"name":"palettePath","location":"ECX","idx":0}],"name":"LoadPaletteAndInitializeColorTables","paramcount":1,"ASM":"SUB ESP,0x510\n","jumpback":"0x6f8eef26"},{"address":"0x6f8ef240","returntype":"undefined4","params":[{"type":"int","size":4,"name":"param_1","location":"Stack[0x04]","idx":0},{"type":"undefined4","size":4,"name":"param_2","location":"Stack[0x08]","idx":1}],"name":"Ordinal_10128","paramcount":2,"ASM":"MOV EAX,dword ptr [ESP + 0x4]\nSUB ESP,0x208\n","jumpback":"0x6f8ef24a"},{"address":"0x6f8ef2d0","returntype":"undefined4","params":[{"type":"uint","size":4,"name":"param_1","location":"ECX","idx":0}],"name":"Ordinal_10065","paramcount":1,"ASM":"SUB ESP,0x208\n","jumpback":"0x6f8ef2d6"},{"address":"0x6f8ef350","returntype":"uint","params":[{"type":"EventContext *","size":4,"name":"pEventContext","location":"Stack[0x04]","idx":0}],"name":"DispatchEventHandler","paramcount":1,"ASM":"SUB ESP,0x20\nPUSH ESI\nPUSH EDI\n","jumpback":"0x6f8ef355"},{"address":"0x6f8ef410","returntype":"uint","params":[{"type":"void * *","size":4,"name":"ppEventHandler","location":"Stack[0x04]","idx":0}],"name":"ProcessKeyEventHandler","paramcount":1,"ASM":"PUSH EBX\nMOV EBX,dword ptr [ESP + 0x8]\n","jumpback":"0x6f8ef415"},{"address":"0x6f8ef4e0","returntype":"int","params":[{"type":"UnitAny * *","size":4,"name":"ppUnit","location":"Stack[0x04]","idx":0}],"name":"ProcessUnitAnimation","paramcount":1,"ASM":"PUSH EBX\nMOV EBX,dword ptr [ESP + 0x8]\n","jumpback":"0x6f8ef4e5"},{"address":"0x6f8ef5b0","returntype":"bool","params":[],"name":"CheckPointInBounds","paramcount":0,"ASM":"MOV ECX,dword ptr [EAX + 0xc]\nCMP ESI,ECX\n","jumpback":"0x6f8ef5b5"},{"address":"0x6f8ef5e0","returntype":"undefined","params":[{"type":"int *","size":4,"name":"param_1","location":"ECX","idx":0},{"type":"int","size":4,"name":"param_2","location":"EDX","idx":1}],"name":"Ordinal_10193","paramcount":2,"ASM":"CMP dword ptr [ECX],0x6\nJZ 0x6f8ef604\n","jumpback":"0x6f8ef5e5"},{"address":"0x6f8ef610","returntype":"uint","params":[{"type":"KeyEventHandler *","size":4,"name":"pEventHandler","location":"ECX","idx":0},{"type":"int","size":4,"name":"nKeyDirection","location":"EDX","idx":1}],"name":"ProcessKeyEventHandler","paramcount":2,"ASM":"MOV ECX,dword ptr [EAX]\nSUB ESP,0x20\n","jumpback":"0x6f8ef615"},{"address":"0x6f8ef6b0","returntype":"undefined","params":[{"type":"int *","size":4,"name":"param_1","location":"ECX","idx":0},{"type":"int","size":4,"name":"param_2","location":"EDX","idx":1}],"name":"Ordinal_10181","paramcount":2,"ASM":"CMP dword ptr [ECX],0x6\nJZ 0x6f8ef6d4\n","jumpback":"0x6f8ef6b5"},{"address":"0x6f8ef6e0","returntype":"undefined","params":[{"type":"int *","size":4,"name":"param_1","location":"ECX","idx":0}],"name":"Ordinal_10122","paramcount":1,"ASM":"SUB ESP,0x20\nPUSH ESI\nPUSH EDI\n","jumpback":"0x6f8ef6e5"},{"address":"0x6f8ef750","returntype":"undefined","params":[{"type":"int *","size":4,"name":"param_1","location":"ECX","idx":0},{"type":"int","size":4,"name":"param_2","location":"EDX","idx":1},{"type":"int","size":4,"name":"param_3","location":"Stack[0x04]","idx":2},{"type":"int","size":4,"name":"param_4","location":"Stack[0x08]","idx":3},{"type":"int","size":4,"name":"param_5","location":"Stack[0x0C]","idx":4}],"name":"Ordinal_10071","paramcount":5,"ASM":"CMP dword ptr [ECX],0x6\nJZ 0x6f8ef774\n","jumpback":"0x6f8ef755"},{"address":"0x6f8ef790","returntype":"undefined","params":[{"type":"int *","size":4,"name":"param_1","location":"ECX","idx":0},{"type":"int","size":4,"name":"param_2","location":"EDX","idx":1},{"type":"undefined4","size":4,"name":"param_3","location":"Stack[0x04]","idx":2},{"type":"int","size":4,"name":"param_4","location":"Stack[0x08]","idx":3}],"name":"Ordinal_10049","paramcount":4,"ASM":"PUSH ESI\nMOV ESI,ECX\nCMP dword ptr [ESI],0x6\n","jumpback":"0x6f8ef796"},{"address":"0x6f8ef7e0","returntype":"undefined","params":[{"type":"int *","size":4,"name":"param_1","location":"ECX","idx":0},{"type":"int","size":4,"name":"param_2","location":"EDX","idx":1},{"type":"Unicode *","size":4,"name":"param_3","location":"Stack[0x04]","idx":2},{"type":"int","size":4,"name":"param_4","location":"Stack[0x08]","idx":3}],"name":"Ordinal_10192","paramcount":4,"ASM":"CMP dword ptr [ECX],0x6\nJZ 0x6f8ef804\n","jumpback":"0x6f8ef7e5"},{"address":"0x6f8ef830","returntype":"undefined","params":[{"type":"int *","size":4,"name":"param_1","location":"ECX","idx":0},{"type":"int","size":4,"name":"param_2","location":"EDX","idx":1}],"name":"Ordinal_10097","paramcount":2,"ASM":"CMP dword ptr [ECX],0x6\nJZ 0x6f8ef851\n","jumpback":"0x6f8ef835"},{"address":"0x6f8ef860","returntype":"undefined4","params":[{"type":"int *","size":4,"name":"param_1","location":"ECX","idx":0}],"name":"Ordinal_10003","paramcount":1,"ASM":"CMP dword ptr [ECX],0x6\nJZ 0x6f8ef881\n","jumpback":"0x6f8ef865"},{"address":"0x6f8ef8a0","returntype":"undefined","params":[{"type":"int *","size":4,"name":"param_1","location":"ECX","idx":0}],"name":"Ordinal_10155","paramcount":1,"ASM":"CMP dword ptr [ECX],0x6\nJZ 0x6f8ef8c1\n","jumpback":"0x6f8ef8a5"},{"address":"0x6f8ef8d0","returntype":"void","params":[{"type":"void *","size":4,"name":"this","location":"ECX","idx":0},{"type":"int","size":4,"name":"yOffset","location":"Stack[0x04]","idx":1}],"name":"RenderCellFileText","paramcount":2,"ASM":"SUB ESP,0xc\nMOV ECX,dword ptr [ESI + 0x60]\n","jumpback":"0x6f8ef8d6"},{"address":"0x6f8efa80","returntype":"uint","params":[{"type":"int *","size":4,"name":"pCellContext","location":"ECX","idx":0}],"name":"RenderCellFileContext","paramcount":1,"ASM":"SUB ESP,0x84\n","jumpback":"0x6f8efa86"},{"address":"0x6f8efd70","returntype":"undefined4 *","params":[{"type":"undefined4","size":4,"name":"param_1","location":"ECX","idx":0},{"type":"undefined4","size":4,"name":"param_2","location":"EDX","idx":1},{"type":"int","size":4,"name":"param_3","location":"Stack[0x04]","idx":2},{"type":"int","size":4,"name":"param_4","location":"Stack[0x08]","idx":3},{"type":"undefined4","size":4,"name":"param_5","location":"Stack[0x0C]","idx":4},{"type":"undefined4","size":4,"name":"param_6","location":"Stack[0x10]","idx":5},{"type":"int","size":4,"name":"param_7","location":"Stack[0x14]","idx":6},{"type":"undefined4","size":4,"name":"param_8","location":"Stack[0x18]","idx":7},{"type":"undefined4","size":4,"name":"param_9","location":"Stack[0x1C]","idx":8},{"type":"int","size":4,"name":"param_10","location":"Stack[0x20]","idx":9},{"type":"undefined4","size":4,"name":"param_11","location":"Stack[0x24]","idx":10}],"name":"Ordinal_10068","paramcount":11,"ASM":"PUSH EBX\nPUSH EBP\nPUSH ESI\nPUSH EDI\nPUSH 0x0\n","jumpback":"0x6f8efd76"},{"address":"0x6f8efeb0","returntype":"bool","params":[{"type":"BoundsRect *","size":4,"name":"pBounds","location":"ECX","idx":0},{"type":"int","size":4,"name":"pointX","location":"EDX","idx":1},{"type":"int","size":4,"name":"pointY","location":"Stack[0x04]","idx":2}],"name":"CheckPointInBounds","paramcount":3,"ASM":"MOV ECX,dword ptr [EAX]\nCMP ESI,ECX\nMOV EDX,dword ptr [EAX + 0x4]\n","jumpback":"0x6f8efeb7"},{"address":"0x6f8efee0","returntype":"uint","params":[{"type":"GameObjectNode *","size":4,"name":"pGameObject","location":"ECX","idx":0}],"name":"RenderScreenshotToFile","paramcount":1,"ASM":"SUB ESP,0x58\nPUSH ESI\nMOV ESI,ECX\n","jumpback":"0x6f8efee6"},{"address":"0x6f8f0030","returntype":"undefined","params":[{"type":"int *","size":4,"name":"param_1","location":"Stack[0x04]","idx":0}],"name":"Ordinal_10112","paramcount":1,"ASM":"MOV EAX,dword ptr [ESP + 0x4]\nCMP dword ptr [EAX],0x2\n","jumpback":"0x6f8f0037"},{"address":"0x6f8f0070","returntype":"undefined4","params":[{"type":"int *","size":4,"name":"param_1","location":"Stack[0x04]","idx":0}],"name":"Ordinal_10174","paramcount":1,"ASM":"MOV EAX,dword ptr [ESP + 0x4]\nCMP dword ptr [EAX],0x2\n","jumpback":"0x6f8f0077"},{"address":"0x6f8f00b0","returntype":"undefined4","params":[{"type":"int *","size":4,"name":"param_1","location":"Stack[0x04]","idx":0}],"name":"Ordinal_10161","paramcount":1,"ASM":"PUSH ESI\nMOV ESI,dword ptr [ESP + 0x8]\n","jumpback":"0x6f8f00b5"},{"address":"0x6f8f0110","returntype":"undefined4","params":[{"type":"int *","size":4,"name":"param_1","location":"Stack[0x04]","idx":0},{"type":"int","size":4,"name":"param_2","location":"Stack[0x08]","idx":1},{"type":"int","size":4,"name":"param_3","location":"Stack[0x0C]","idx":2}],"name":"Ordinal_10182","paramcount":3,"ASM":"MOV EAX,dword ptr [ESP + 0x4]\nCMP dword ptr [EAX],0x2\n","jumpback":"0x6f8f0117"},{"address":"0x6f8f0150","returntype":"undefined4","params":[{"type":"int *","size":4,"name":"param_1","location":"Stack[0x04]","idx":0},{"type":"int","size":4,"name":"param_2","location":"Stack[0x08]","idx":1},{"type":"int","size":4,"name":"param_3","location":"Stack[0x0C]","idx":2}],"name":"Ordinal_10058","paramcount":3,"ASM":"MOV EAX,dword ptr [ESP + 0x4]\nCMP dword ptr [EAX],0x2\n","jumpback":"0x6f8f0157"},{"address":"0x6f8f0190","returntype":"uint","params":[{"type":"GameObjectNode * *","size":4,"name":"ppGameObjectNode","location":"Stack[0x04]","idx":0}],"name":"TestGameObjectHitRegions","paramcount":1,"ASM":"SUB ESP,0x8\nMOV EAX,dword ptr [ESP + 0xc]\n","jumpback":"0x6f8f0197"},{"address":"0x6f8f0280","returntype":"void","params":[{"type":"tagRECT *","size":4,"name":"pSourceRect","location":"Stack[0x04]","idx":0},{"type":"tagRECT *","size":4,"name":"pDestRect","location":"Stack[0x08]","idx":1},{"type":"uint","size":4,"name":"blitParam","location":"Stack[0x0C]","idx":2}],"name":"BlitScaledRectangle","paramcount":3,"ASM":"SUB ESP,0x20\nMOV ECX,dword ptr [ESP + 0x24]\n","jumpback":"0x6f8f0287"},{"address":"0x6f8f03d0","returntype":"undefined4 *","params":[{"type":"undefined4","size":4,"name":"param_1","location":"ECX","idx":0},{"type":"undefined4","size":4,"name":"param_2","location":"EDX","idx":1},{"type":"undefined4","size":4,"name":"param_3","location":"Stack[0x04]","idx":2},{"type":"undefined4","size":4,"name":"param_4","location":"Stack[0x08]","idx":3},{"type":"undefined4","size":4,"name":"param_5","location":"Stack[0x0C]","idx":4},{"type":"undefined4","size":4,"name":"param_6","location":"Stack[0x10]","idx":5},{"type":"undefined4","size":4,"name":"param_7","location":"Stack[0x14]","idx":6},{"type":"undefined4","size":4,"name":"param_8","location":"Stack[0x18]","idx":7}],"name":"Ordinal_10127","paramcount":8,"ASM":"PUSH EBX\nPUSH EBP\nPUSH ESI\nPUSH EDI\nXOR EBP,EBP\n","jumpback":"0x6f8f03d6"},{"address":"0x6f8f04b0","returntype":"int","params":[{"type":"int *","size":4,"name":"pArgs","location":"ECX","idx":0}],"name":"ProcessScreenshotRegions","paramcount":1,"ASM":"MOV EDX,ECX\nMOV EAX,dword ptr [EDX]\nSUB ESP,0xa8\n","jumpback":"0x6f8f04ba"},{"address":"0x6f8f0600","returntype":"int","params":[{"type":"int *","size":4,"name":"pControl","location":"ECX","idx":0}],"name":"Ordinal_10118","paramcount":1,"ASM":"JMP 0x6f8f7fc0\n","jumpback":""},{"address":"0x6f8f0610","returntype":"GameObjectNode *","params":[{"type":"typedef UINT uint","size":4,"name":"dwParam1","location":"Stack[0x04]","idx":0},{"type":"typedef UINT uint","size":4,"name":"dwParam2","location":"Stack[0x08]","idx":1},{"type":"typedef UINT uint","size":4,"name":"dwParam3","location":"Stack[0x0C]","idx":2},{"type":"typedef UINT uint","size":4,"name":"dwParam4","location":"Stack[0x10]","idx":3},{"type":"typedef UINT uint","size":4,"name":"dwParam5","location":"Stack[0x14]","idx":4},{"type":"typedef UINT uint","size":4,"name":"dwParam6","location":"Stack[0x18]","idx":5},{"type":"typedef UINT uint","size":4,"name":"dwParam7","location":"Stack[0x1C]","idx":6}],"name":"CreateGameObjectNode","paramcount":7,"ASM":"PUSH ESI\nPUSH EDI\nXOR ESI,ESI\nPUSH ESI\n","jumpback":"0x6f8f0615"},{"address":"0x6f8f06f0","returntype":"int","params":[{"type":"int *","size":4,"name":"pControl","location":"ECX","idx":0}],"name":"RemoveUIControlFromList","paramcount":1,"ASM":"JMP 0x6f8f7fc0\n","jumpback":""},{"address":"0x6f8f0700","returntype":"undefined4","params":[{"type":"int *","size":4,"name":"param_1","location":"Stack[0x04]","idx":0},{"type":"int","size":4,"name":"param_2","location":"Stack[0x08]","idx":1}],"name":"Ordinal_10091","paramcount":2,"ASM":"MOV EAX,dword ptr [ESP + 0x4]\nCMP dword ptr [EAX],0x2\n","jumpback":"0x6f8f0707"},{"address":"0x6f8f0740","returntype":"int","params":[{"type":"CallbackHandler * *","size":4,"name":"ppHandler","location":"Stack[0x04]","idx":0}],"name":"ProcessCallbackHandler","paramcount":1,"ASM":"MOV ECX,dword ptr [ESP + 0x4]\nPUSH ESI\n","jumpback":"0x6f8f0745"},{"address":"0x6f8f07c0","returntype":"int","params":[{"type":"ScreenshotConfig *","size":4,"name":"pConfig","location":"ECX","idx":0}],"name":"CheckScreenshotBoundsCollision","paramcount":1,"ASM":"SUB ESP,0x54\nPUSH EBX\nMOV EBX,ECX\n","jumpback":"0x6f8f07c6"},{"address":"0x6f8f08a0","returntype":"undefined4","params":[{"type":"int *","size":4,"name":"param_1","location":"ECX","idx":0}],"name":"Ordinal_10134","paramcount":1,"ASM":"PUSH ESI\nMOV ESI,ECX\nCMP dword ptr [ESI],0x2\n","jumpback":"0x6f8f08a6"},{"address":"0x6f8f0900","returntype":"int","params":[{"type":"int *","size":4,"name":"param_1","location":"ECX","idx":0}],"name":"Ordinal_10151","paramcount":1,"ASM":"CMP dword ptr [ECX],0x2\nJZ 0x6f8f0921\n","jumpback":"0x6f8f0905"},{"address":"0x6f8f0930","returntype":"int","params":[{"type":"ScreenshotConfig *","size":4,"name":"pConfig","location":"ECX","idx":0}],"name":"UpdateScreenshotAnimationState","paramcount":1,"ASM":"MOV EAX,dword ptr [ESI]\nSUB ESP,0x20\n","jumpback":"0x6f8f0935"},{"address":"0x6f8f0a50","returntype":"int","params":[{"type":"ScreenshotConfig *","size":4,"name":"pConfig","location":"ECX","idx":0}],"name":"ProcessScreenshotAnimation","paramcount":1,"ASM":"SUB ESP,0x60\nPUSH ESI\nMOV ESI,ECX\n","jumpback":"0x6f8f0a56"},{"address":"0x6f8f0c40","returntype":"int","params":[{"type":"int *","size":4,"name":"pControl","location":"ECX","idx":0}],"name":"Ordinal_10056","paramcount":1,"ASM":"JMP 0x6f8f7fc0\n","jumpback":""},{"address":"0x6f8f0c50","returntype":"undefined4 *","params":[{"type":"undefined4","size":4,"name":"param_1","location":"ECX","idx":0},{"type":"undefined4","size":4,"name":"param_2","location":"EDX","idx":1},{"type":"undefined4","size":4,"name":"param_3","location":"Stack[0x04]","idx":2},{"type":"undefined4","size":4,"name":"param_4","location":"Stack[0x08]","idx":3},{"type":"undefined4","size":4,"name":"param_5","location":"Stack[0x0C]","idx":4},{"type":"undefined4","size":4,"name":"param_6","location":"Stack[0x10]","idx":5},{"type":"undefined4","size":4,"name":"param_7","location":"Stack[0x14]","idx":6},{"type":"int","size":4,"name":"param_8","location":"Stack[0x18]","idx":7},{"type":"int","size":4,"name":"param_9","location":"Stack[0x1C]","idx":8},{"type":"undefined4","size":4,"name":"param_10","location":"Stack[0x20]","idx":9}],"name":"Ordinal_10078","paramcount":10,"ASM":"PUSH ECX\nPUSH EBX\nPUSH EBP\nPUSH ESI\nPUSH EDI\n","jumpback":"0x6f8f0c55"},{"address":"0x6f8f0d70","returntype":"int","params":[],"name":"DllInitializeSuccess","paramcount":0,"ASM":"MOV EAX,0x1\n","jumpback":"0x6f8f0d75"},{"address":"0x6f8f0d80","returntype":"int","params":[{"type":"ListBoxControl *","size":4,"name":"pListBox","location":"ECX","idx":0}],"name":"ProcessListBoxClick","paramcount":1,"ASM":"CMP dword ptr [ECX],0xb\nJZ 0x6f8f0da4\n","jumpback":"0x6f8f0d85"},{"address":"0x6f8f0e10","returntype":"typedef BOOL int","params":[],"name":"ExecuteScreenshotModeCallback","paramcount":0,"ASM":"MOV ECX,dword ptr [0x6f9a9e24]\n","jumpback":"0x6f8f0e16"},{"address":"0x6f8f0e80","returntype":"int","params":[],"name":"IsScreenshotModeEnabled","paramcount":0,"ASM":"MOV EAX,[0x6f9a9e24]\n","jumpback":"0x6f8f0e85"},{"address":"0x6f8f0ed0","returntype":"undefined4","params":[],"name":"Ordinal_10119","paramcount":0,"ASM":"MOV ECX,dword ptr [0x6f9a9e24]\n","jumpback":"0x6f8f0ed6"},{"address":"0x6f8f0ef0","returntype":"int","params":[{"type":"ListBoxControl *","size":4,"name":"pListBox","location":"ECX","idx":0}],"name":"RenderDropdownMenuControl","paramcount":1,"ASM":"SUB ESP,0x14\nPUSH ESI\nMOV ESI,ECX\n","jumpback":"0x6f8f0ef6"},{"address":"0x6f8f1010","returntype":"undefined4","params":[{"type":"Unicode *","size":4,"name":"param_1","location":"Stack[0x04]","idx":0}],"name":"Ordinal_10206","paramcount":1,"ASM":"PUSH EBX\nMOV EBX,dword ptr [0x6f9a9e24]\n","jumpback":"0x6f8f1017"},{"address":"0x6f8f10b0","returntype":"undefined","params":[],"name":"Ordinal_10029","paramcount":0,"ASM":"MOV ECX,dword ptr [0x6f9a9e24]\n","jumpback":"0x6f8f10b6"},{"address":"0x6f8f1190","returntype":"undefined","params":[{"type":"int","size":4,"name":"param_1","location":"ECX","idx":0},{"type":"undefined4","size":4,"name":"param_2","location":"EDX","idx":1},{"type":"int","size":4,"name":"param_3","location":"Stack[0x04]","idx":2},{"type":"undefined4","size":4,"name":"param_4","location":"Stack[0x08]","idx":3}],"name":"Ordinal_10017","paramcount":4,"ASM":"TEST ECX,ECX\nJNZ 0x6f8f1198\nPUSH 0x30\n","jumpback":"0x6f8f1196"},{"address":"0x6f8f1240","returntype":"undefined","params":[{"type":"int","size":4,"name":"param_1","location":"ECX","idx":0},{"type":"undefined4","size":4,"name":"param_2","location":"EDX","idx":1},{"type":"int","size":4,"name":"param_3","location":"Stack[0x04]","idx":2},{"type":"undefined4","size":4,"name":"param_4","location":"Stack[0x08]","idx":3}],"name":"Ordinal_10090","paramcount":4,"ASM":"TEST ECX,ECX\nJNZ 0x6f8f1248\nPUSH 0x13\n","jumpback":"0x6f8f1246"},{"address":"0x6f8f1340","returntype":"undefined","params":[{"type":"int","size":4,"name":"param_1","location":"ECX","idx":0},{"type":"int","size":4,"name":"param_2","location":"EDX","idx":1},{"type":"int","size":4,"name":"param_3","location":"Stack[0x04]","idx":2}],"name":"Ordinal_10129","paramcount":3,"ASM":"PUSH EBX\nMOV EBX,ECX\nTEST EBX,EBX\n","jumpback":"0x6f8f1345"},{"address":"0x6f8f1390","returntype":"uint","params":[{"type":"GameObjectNode * *","size":4,"name":"ppScreenshotObject","location":"Stack[0x04]","idx":0}],"name":"InvokeScreenshotCallback","paramcount":1,"ASM":"PUSH ESI\nMOV ESI,dword ptr [ESP + 0x8]\n","jumpback":"0x6f8f1395"},{"address":"0x6f8f13f0","returntype":"undefined","params":[],"name":"Ordinal_10025","paramcount":0,"ASM":"MOV dword ptr [0x6f9a9e20],0x1\n","jumpback":"0x6f8f13fa"},{"address":"0x6f8f1400","returntype":"undefined4","params":[{"type":"int *","size":4,"name":"param_1","location":"Stack[0x04]","idx":0},{"type":"int","size":4,"name":"param_2","location":"Stack[0x08]","idx":1},{"type":"int","size":4,"name":"param_3","location":"Stack[0x0C]","idx":2}],"name":"Ordinal_10116","paramcount":3,"ASM":"MOV EAX,dword ptr [ESP + 0x4]\nCMP dword ptr [EAX],0x9\n","jumpback":"0x6f8f1407"},{"address":"0x6f8f1450","returntype":"undefined4","params":[{"type":"int *","size":4,"name":"param_1","location":"Stack[0x04]","idx":0}],"name":"Ordinal_10060","paramcount":1,"ASM":"PUSH ESI\nMOV ESI,dword ptr [ESP + 0x8]\n","jumpback":"0x6f8f1455"},{"address":"0x6f8f14a0","returntype":"undefined4","params":[{"type":"int *","size":4,"name":"param_1","location":"Stack[0x04]","idx":0},{"type":"char *","size":4,"name":"param_2","location":"Stack[0x08]","idx":1}],"name":"Ordinal_10002","paramcount":2,"ASM":"PUSH EDI\nMOV EDI,dword ptr [ESP + 0x8]\n","jumpback":"0x6f8f14a5"},{"address":"0x6f8f1520","returntype":"int","params":[{"type":"UnitAny *","size":4,"name":"pScreenshotObj","location":"ECX","idx":0}],"name":"ProcessScreenshotObject","paramcount":1,"ASM":"PUSH ESI\nMOV ESI,ECX\nCMP dword ptr [ESI],0x9\n","jumpback":"0x6f8f1526"},{"address":"0x6f8f15a0","returntype":"undefined4 *","params":[{"type":"int","size":4,"name":"param_1","location":"ECX","idx":0},{"type":"int","size":4,"name":"param_2","location":"EDX","idx":1},{"type":"int","size":4,"name":"param_3","location":"Stack[0x04]","idx":2},{"type":"int","size":4,"name":"param_4","location":"Stack[0x08]","idx":3},{"type":"undefined4","size":4,"name":"param_5","location":"Stack[0x0C]","idx":4}],"name":"Ordinal_10198","paramcount":5,"ASM":"PUSH EBX\nPUSH EBP\nPUSH ESI\nPUSH EDI\nPUSH 0x0\n","jumpback":"0x6f8f15a6"},{"address":"0x6f8f16a0","returntype":"undefined","params":[{"type":"int *","size":4,"name":"param_1","location":"ECX","idx":0}],"name":"Ordinal_10011","paramcount":1,"ASM":"PUSH ESI\nMOV ESI,ECX\nCMP dword ptr [ESI],0x9\n","jumpback":"0x6f8f16a6"},{"address":"0x6f8f16e0","returntype":"int *","params":[{"type":"int","size":4,"name":"charCount","location":"Stack[0x04]","idx":0},{"type":"int","size":4,"name":"trimWhitespace","location":"Stack[0x08]","idx":1}],"name":"CreateUnicodeStringObject","paramcount":2,"ASM":"PUSH EBX\nPUSH ESI\nPUSH EDI\nPUSH 0x0\n","jumpback":"0x6f8f16e5"},{"address":"0x6f8f1760","returntype":"undefined","params":[{"type":"int","size":4,"name":"param_1","location":"ECX","idx":0}],"name":"Ordinal_10008","paramcount":1,"ASM":"PUSH ESI\nMOV ESI,ECX\nTEST ESI,ESI\n","jumpback":"0x6f8f1765"},{"address":"0x6f8f17a0","returntype":"undefined","params":[{"type":"void *","size":4,"name":"this","location":"ECX","idx":0},{"type":"int","size":4,"name":"param_1","location":"Stack[0x04]","idx":1},{"type":"undefined4","size":4,"name":"param_2","location":"Stack[0x08]","idx":2},{"type":"int","size":4,"name":"param_3","location":"Stack[0x0C]","idx":3}],"name":"Ordinal_10138","paramcount":4,"ASM":"SUB ESP,0x50\nPUSH EBX\nPUSH EBP\n","jumpback":"0x6f8f17a5"},{"address":"0x6f8f1880","returntype":"uint","params":[{"type":"byte","size":1,"name":"param_1","location":"CL","idx":0}],"name":"Ordinal_10159","paramcount":1,"ASM":"MOVZX AX,CL\nCMP AX,0x100\n","jumpback":"0x6f8f1888"},{"address":"0x6f8f18f0","returntype":"undefined","params":[],"name":"Ordinal_10085","paramcount":0,"ASM":"JMP 0x7b662bd0\n","jumpback":""},{"address":"0x6f8f1960","returntype":"void","params":[{"type":"void *","size":4,"name":"this","location":"ECX","idx":0},{"type":"int *","size":4,"name":"pYPosition","location":"Stack[0x04]","idx":1},{"type":"Unicode *","size":4,"name":"pUnicodeString","location":"Stack[0x08]","idx":2}],"name":"RenderUnicodeText","paramcount":3,"ASM":"SUB ESP,0x50\nPUSH EBX\nPUSH EBP\n","jumpback":"0x6f8f1965"},{"address":"0x6f8f1a50","returntype":"void","params":[{"type":"Unicode *","size":4,"name":"pText","location":"Stack[0x04]","idx":0},{"type":"int","size":4,"name":"yPos","location":"Stack[0x08]","idx":1},{"type":"int","size":4,"name":"textColor","location":"Stack[0x0C]","idx":2},{"type":"int","size":4,"name":"xScrollOffset","location":"Stack[0x10]","idx":3},{"type":"int","size":4,"name":"maxWidth","location":"Stack[0x14]","idx":4}],"name":"RenderScrollableTextWithColorCodes","paramcount":5,"ASM":"SUB ESP,0x54\nPUSH EBX\nPUSH EBP\n","jumpback":"0x6f8f1a55"},{"address":"0x6f8f1c30","returntype":"uint","params":[{"type":"Unicode *","size":4,"name":"param_1","location":"ECX","idx":0},{"type":"int","size":4,"name":"param_2","location":"EDX","idx":1},{"type":"uint","size":4,"name":"param_3","location":"Stack[0x04]","idx":2},{"type":"int","size":4,"name":"param_4","location":"Stack[0x08]","idx":3},{"type":"uint","size":4,"name":"param_5","location":"Stack[0x0C]","idx":4}],"name":"Ordinal_10162","paramcount":5,"ASM":"SUB ESP,0x5c\nMOV EAX,dword ptr [ESP + 0x68]\n","jumpback":"0x6f8f1c37"},{"address":"0x6f8f1e40","returntype":"void","params":[{"type":"void *","size":4,"name":"this","location":"ECX","idx":0},{"type":"tagRECT *","size":4,"name":"pRect","location":"Stack[0x04]","idx":1},{"type":"int","size":4,"name":"xOffset","location":"Stack[0x08]","idx":2},{"type":"int","size":4,"name":"yOffset","location":"Stack[0x0C]","idx":3}],"name":"TransformRectangleCoordinates","paramcount":4,"ASM":"PUSH EDX\nMOV EDX,dword ptr [ESP + 0x10]\n","jumpback":"0x6f8f1e45"},{"address":"0x6f8f1e60","returntype":"undefined","params":[],"name":"Ordinal_10083","paramcount":0,"ASM":"JMP 0x7b662d70\n","jumpback":""},{"address":"0x6f8f1e80","returntype":"int","params":[{"type":"Unicode *","size":4,"name":"pUnicodeText","location":"Stack[0x04]","idx":0}],"name":"CalculateMultiLineTextHeight","paramcount":1,"ASM":"TEST ESI,ESI\nJNZ 0x6f8f1ea3\nPUSH 0x25e\n","jumpback":"0x6f8f1e89"},{"address":"0x6f8f1f00","returntype":"int","params":[{"type":"Unicode *","size":4,"name":"pText","location":"Stack[0x04]","idx":0}],"name":"CalculateUnicodeTextPixelWidth","paramcount":1,"ASM":"PUSH ECX\nPUSH ESI\nMOV ESI,EAX\nTEST ESI,ESI\n","jumpback":"0x6f8f1f06"},{"address":"0x6f8f1fb0","returntype":"int","params":[{"type":"Unicode *","size":4,"name":"pUnicodeText","location":"ECX","idx":0}],"name":"CalculateTextPixelWidth","paramcount":1,"ASM":"PUSH ECX\nPUSH ESI\nMOV ESI,EAX\nTEST ESI,ESI\n","jumpback":"0x6f8f1fb6"},{"address":"0x6f8f2080","returntype":"undefined","params":[],"name":"Ordinal_10055","paramcount":0,"ASM":"JMP 0x7b662ce0\n","jumpback":""},{"address":"0x6f8f20c0","returntype":"int","params":[{"type":"ushort *","size":4,"name":"param_1","location":"ECX","idx":0},{"type":"int","size":4,"name":"param_2","location":"EDX","idx":1}],"name":"Ordinal_10171","paramcount":2,"ASM":"PUSH ECX\nPUSH EBP\nPUSH ESI\nPUSH EDI\nXOR EDI,EDI\n","jumpback":"0x6f8f20c6"},{"address":"0x6f8f2150","returntype":"int *","params":[{"type":"ushort","size":2,"name":"searchKey","location":"CX","idx":0}],"name":"BinarySearchTableByKey","paramcount":1,"ASM":"PUSH ECX\nMOV EAX,[0x6f8ffd34]\n","jumpback":"0x6f8f2156"},{"address":"0x6f8f21d0","returntype":"int *","params":[{"type":"ushort","size":2,"name":"charCode","location":"CX","idx":0}],"name":"GetFontMetricsBasePointer","paramcount":1,"ASM":"CMP CX,0xff\n","jumpback":"0x6f8f21d5"},{"address":"0x6f8f2200","returntype":"undefined","params":[],"name":"Ordinal_10066","paramcount":0,"ASM":"PUSH EBX\nPUSH ESI\nMOV ESI,0x6f901514\n","jumpback":"0x6f8f2207"},{"address":"0x6f8f2280","returntype":"void","params":[{"type":"int","size":4,"name":"bufferSize","location":"Stack[0x04]","idx":0}],"name":"BuildFontTablePath","paramcount":1,"ASM":"SUB ESP,0x104\n","jumpback":"0x6f8f2286"},{"address":"0x6f8f2350","returntype":"void","params":[{"type":"int","size":4,"name":"bufferSize","location":"Stack[0x04]","idx":0}],"name":"BuildLocalizedFontPath","paramcount":1,"ASM":"SUB ESP,0x104\n","jumpback":"0x6f8f2356"},{"address":"0x6f8f2410","returntype":"int *","params":[{"type":"Unicode *","size":4,"name":"param_1","location":"ECX","idx":0},{"type":"int *","size":4,"name":"param_2","location":"EDX","idx":1},{"type":"int","size":4,"name":"param_3","location":"Stack[0x04]","idx":2}],"name":"Ordinal_10059","paramcount":3,"ASM":"SUB ESP,0x14\nPUSH EBX\nPUSH EBP\n","jumpback":"0x6f8f2415"},{"address":"0x6f8f2700","returntype":"undefined","params":[],"name":"Ordinal_10177","paramcount":0,"ASM":"JMP 0x7b662d20\n","jumpback":""},{"address":"0x6f8f2720","returntype":"undefined","params":[{"type":"void *","size":4,"name":"this","location":"ECX","idx":0},{"type":"Unicode *","size":4,"name":"param_1","location":"Stack[0x04]","idx":1}],"name":"Ordinal_10051","paramcount":2,"ASM":"MOV EAX,EDX\nJMP 0x6f8f1960\n","jumpback":""},{"address":"0x6f8f2730","returntype":"undefined","params":[{"type":"undefined4","size":4,"name":"param_1","location":"Stack[0x04]","idx":0},{"type":"undefined4","size":4,"name":"param_2","location":"Stack[0x08]","idx":1},{"type":"undefined4","size":4,"name":"param_3","location":"Stack[0x0C]","idx":2}],"name":"Ordinal_10070","paramcount":3,"ASM":"MOV EAX,dword ptr [ESP + 0xc]\nPUSH EAX\n","jumpback":"0x6f8f2735"},{"address":"0x6f8f2760","returntype":"void","params":[{"type":"Unicode *","size":4,"name":"pTextString","location":"Stack[0x04]","idx":0},{"type":"int","size":4,"name":"nXPosition","location":"Stack[0x08]","idx":1},{"type":"int","size":4,"name":"nYPosition","location":"Stack[0x0C]","idx":2},{"type":"int","size":4,"name":"nMaxWidth","location":"Stack[0x10]","idx":3},{"type":"int","size":4,"name":"nColorIndex","location":"Stack[0x14]","idx":4},{"type":"undefined4","size":4,"name":"renderFlags","location":"Stack[0x18]","idx":5}],"name":"RenderFormattedUnicodeText","paramcount":6,"ASM":"SUB ESP,0x54\nPUSH EBX\nPUSH EBP\n","jumpback":"0x6f8f2765"},{"address":"0x6f8f2940","returntype":"void","params":[{"type":"Unicode *","size":4,"name":"pText","location":"Stack[0x04]","idx":0},{"type":"int","size":4,"name":"xPos","location":"Stack[0x08]","idx":1},{"type":"int","size":4,"name":"yPos","location":"Stack[0x0C]","idx":2},{"type":"int","size":4,"name":"maxWidth","location":"Stack[0x10]","idx":3},{"type":"int","size":4,"name":"bCentered","location":"Stack[0x14]","idx":4}],"name":"RenderTextWithColorCodes","paramcount":5,"ASM":"SUB ESP,0x54\nPUSH EBX\nPUSH EBP\n","jumpback":"0x6f8f2945"},{"address":"0x6f8f2b20","returntype":"undefined","params":[],"name":"Ordinal_10028","paramcount":0,"ASM":"JMP 0x7b662cb0\n","jumpback":""},{"address":"0x6f8f2b29","returntype":"void","params":[],"name":"ThunkOrdinal10055_RegAdapter","paramcount":0,"ASM":"MOV ECX,ESI\nMOV EDX,EAX\nPOP ESI\n","jumpback":"0x6f8f2b2e"},{"address":"0x6f8f2b40","returntype":"void","params":[{"type":"int","size":4,"name":"slotIndex","location":"Stack[0x04]","idx":0}],"name":"InitializeScreenshotSlot","paramcount":1,"ASM":"SUB ESP,0x50\nPUSH EBX\nPUSH ESI\n","jumpback":"0x6f8f2b45"},{"address":"0x6f8f2ba0","returntype":"undefined","params":[{"type":"Unicode *","size":4,"name":"param_1","location":"ECX","idx":0},{"type":"uint","size":4,"name":"param_2","location":"EDX","idx":1},{"type":"int","size":4,"name":"param_3","location":"Stack[0x04]","idx":2},{"type":"int","size":4,"name":"param_4","location":"Stack[0x08]","idx":3},{"type":"int","size":4,"name":"param_5","location":"Stack[0x0C]","idx":4}],"name":"Ordinal_10107","paramcount":5,"ASM":"SUB ESP,0x10\nPUSH ESI\nMOV ESI,ECX\n","jumpback":"0x6f8f2ba6"},{"address":"0x6f8f2d10","returntype":"void","params":[{"type":"Unicode *","size":4,"name":"pTextBuffer","location":"Stack[0x04]","idx":0},{"type":"int","size":4,"name":"nXPosition","location":"Stack[0x08]","idx":1},{"type":"int","size":4,"name":"nYPosition","location":"Stack[0x0C]","idx":2},{"type":"int","size":4,"name":"nControlWidth","location":"Stack[0x10]","idx":3}],"name":"RenderSelectedLineBackground","paramcount":4,"ASM":"SUB ESP,0x8\nPUSH EBX\nPUSH EBP\n","jumpback":"0x6f8f2d15"},{"address":"0x6f8f2de0","returntype":"undefined","params":[{"type":"undefined4","size":4,"name":"param_1","location":"ECX","idx":0},{"type":"int","size":4,"name":"param_2","location":"EDX","idx":1},{"type":"int","size":4,"name":"param_3","location":"Stack[0x04]","idx":2}],"name":"Ordinal_10004","paramcount":3,"ASM":"SUB ESP,0x10\nPUSH EBX\nPUSH ESI\n","jumpback":"0x6f8f2de5"},{"address":"0x6f8f2e90","returntype":"undefined","params":[],"name":"Ordinal_10013","paramcount":0,"ASM":"JMP 0x7b662c40\n","jumpback":""},{"address":"0x6f8f2e95","returntype":"void","params":[{"type":"Unicode *","size":4,"name":"pText","location":"ECX","idx":0},{"type":"uint","size":4,"name":"textWidth","location":"EDX","idx":1},{"type":"int","size":4,"name":"viewportBottom","location":"Stack[0x04]","idx":2},{"type":"int","size":4,"name":"viewportTop","location":"Stack[0x08]","idx":3},{"type":"uint","size":4,"name":"renderFlags1","location":"Stack[0x0C]","idx":4},{"type":"int","size":4,"name":"viewportLeft","location":"Stack[0x10]","idx":5},{"type":"uint","size":4,"name":"renderFlags2","location":"Stack[0x14]","idx":6},{"type":"int","size":4,"name":"viewportRight","location":"Stack[0x18]","idx":7}],"name":"RenderTextWithViewportClipping","paramcount":8,"ASM":"PUSH ESI\nMOV ESI,ECX\nPUSH EDI\nMOV EAX,ESI\n","jumpback":"0x6f8f2e9b"},{"address":"0x6f8f2f60","returntype":"undefined","params":[],"name":"Ordinal_10096","paramcount":0,"ASM":"JMP 0x7b662b60\n","jumpback":""},{"address":"0x6f8f2fa0","returntype":"undefined","params":[],"name":"Ordinal_10150","paramcount":0,"ASM":"JMP 0x7b662ae0\n","jumpback":""},{"address":"0x6f8f2fe0","returntype":"undefined","params":[],"name":"Ordinal_10184","paramcount":0,"ASM":"JMP 0x7b662dd0\n","jumpback":""},{"address":"0x6f8f3110","returntype":"undefined","params":[],"name":"Ordinal_10026","paramcount":0,"ASM":"SUB ESP,0x154\n","jumpback":"0x6f8f3116"},{"address":"0x6f8f33a0","returntype":"undefined","params":[],"name":"Ordinal_10110","paramcount":0,"ASM":"SUB ESP,0x1c\nMOV EAX,[0x6f8ffd34]\n","jumpback":"0x6f8f33a8"},{"address":"0x6f8f3590","returntype":"undefined4","params":[{"type":"undefined4","size":4,"name":"param_1","location":"Stack[0x04]","idx":0},{"type":"undefined4","size":4,"name":"param_2","location":"Stack[0x08]","idx":1},{"type":"char *","size":4,"name":"param_3","location":"Stack[0x0C]","idx":2}],"name":"Ordinal_10136","paramcount":3,"ASM":"MOV EAX,dword ptr [ESP + 0xc]\nMOV AL,byte ptr [EAX]\n","jumpback":"0x6f8f3596"},{"address":"0x6f8f35c0","returntype":"undefined4","params":[{"type":"undefined4","size":4,"name":"param_1","location":"Stack[0x04]","idx":0},{"type":"undefined4","size":4,"name":"param_2","location":"Stack[0x08]","idx":1},{"type":"char *","size":4,"name":"param_3","location":"Stack[0x0C]","idx":2}],"name":"Ordinal_10152","paramcount":3,"ASM":"MOV EAX,dword ptr [ESP + 0xc]\nMOV AL,byte ptr [EAX]\n","jumpback":"0x6f8f35c6"},{"address":"0x6f8f35e0","returntype":"uint","params":[{"type":"int *","size":4,"name":"pControlObject","location":"Stack[0x04]","idx":0}],"name":"HandleTextControlCallback","paramcount":1,"ASM":"MOV EAX,dword ptr [ESP + 0x4]\nMOV EAX,dword ptr [EAX]\n","jumpback":"0x6f8f35e6"},{"address":"0x6f8f3640","returntype":"undefined","params":[{"type":"int *","size":4,"name":"param_1","location":"ECX","idx":0},{"type":"int *","size":4,"name":"param_2","location":"EDX","idx":1}],"name":"Ordinal_10146","paramcount":2,"ASM":"TEST ECX,ECX\nJNZ 0x6f8f364b\nPUSH 0x48a\n","jumpback":"0x6f8f3649"},{"address":"0x6f8f36a0","returntype":"int *","params":[{"type":"int *","size":4,"name":"param_1","location":"ECX","idx":0}],"name":"Ordinal_10166","paramcount":1,"ASM":"TEST ECX,ECX\nJNZ 0x6f8f36ab\nPUSH 0x47e\n","jumpback":"0x6f8f36a9"},{"address":"0x6f8f36e0","returntype":"undefined","params":[{"type":"int *","size":4,"name":"param_1","location":"ECX","idx":0},{"type":"int","size":4,"name":"param_2","location":"EDX","idx":1}],"name":"Ordinal_10202","paramcount":2,"ASM":"TEST ECX,ECX\nJNZ 0x6f8f36eb\nPUSH 0x445\n","jumpback":"0x6f8f36e9"},{"address":"0x6f8f3720","returntype":"undefined","params":[{"type":"int *","size":4,"name":"param_1","location":"ECX","idx":0}],"name":"Ordinal_10021","paramcount":1,"ASM":"PUSH ESI\nMOV ESI,ECX\nTEST ESI,ESI\n","jumpback":"0x6f8f3725"},{"address":"0x6f8f3770","returntype":"undefined","params":[{"type":"int *","size":4,"name":"param_1","location":"ECX","idx":0}],"name":"Ordinal_10105","paramcount":1,"ASM":"TEST ECX,ECX\nJNZ 0x6f8f377b\nPUSH 0x1a4\n","jumpback":"0x6f8f3779"},{"address":"0x6f8f37b0","returntype":"int","params":[{"type":"TextEditControl *","size":4,"name":"pControl","location":"ECX","idx":0}],"name":"HasTextSelection","paramcount":1,"ASM":"TEST EAX,EAX\nJNZ 0x6f8f37bb\nPUSH 0x198\n","jumpback":"0x6f8f37b9"},{"address":"0x6f8f3800","returntype":"typedef BOOL int","params":[{"type":"char *","size":4,"name":"pszText","location":"Stack[0x04]","idx":0}],"name":"CopyTextToClipboard","paramcount":1,"ASM":"PUSH ESI\nMOV ESI,EAX\nMOV EAX,[0x6f9aa678]\n","jumpback":"0x6f8f3808"},{"address":"0x6f8f38c0","returntype":"char *","params":[],"name":"ReadTextFromClipboard","paramcount":0,"ASM":"PUSH 0x1\nCALL dword ptr [0x6f8fb31c]\n","jumpback":"0x6f8f38c8"},{"address":"0x6f8f3930","returntype":"undefined","params":[{"type":"int *","size":4,"name":"param_1","location":"ECX","idx":0},{"type":"int","size":4,"name":"param_2","location":"EDX","idx":1}],"name":"Ordinal_10010","paramcount":2,"ASM":"TEST ECX,ECX\nJNZ 0x6f8f393b\nPUSH 0x86\n","jumpback":"0x6f8f3939"},{"address":"0x6f8f3970","returntype":"undefined","params":[{"type":"int *","size":4,"name":"param_1","location":"ECX","idx":0},{"type":"int","size":4,"name":"param_2","location":"EDX","idx":1}],"name":"Ordinal_10170","paramcount":2,"ASM":"TEST ECX,ECX\nJNZ 0x6f8f3978\nPUSH 0x79\n","jumpback":"0x6f8f3976"},{"address":"0x6f8f39a0","returntype":"void","params":[{"type":"TextEditControl *","size":4,"name":"pTextEdit","location":"Stack[0x04]","idx":0}],"name":"DeleteTextSelection","paramcount":1,"ASM":"SUB ESP,0x400\n","jumpback":"0x6f8f39a6"},{"address":"0x6f8f3ac0","returntype":"void","params":[],"name":"AdjustTextEditVisibleWindow","paramcount":0,"ASM":"PUSH EBP\nMOV EBP,ESP\nAND ESP,0xfffffff8\n","jumpback":"0x6f8f3ac6"},{"address":"0x6f8f3da0","returntype":"int","params":[{"type":"UIControl * *","size":4,"name":"ppEventControl","location":"Stack[0x04]","idx":0},{"type":"int","size":4,"name":"xCoordinate","location":"Stack[0x08]","idx":1},{"type":"int","size":4,"name":"yCoordinate","location":"Stack[0x0C]","idx":2}],"name":"ConvertMouseClickToTextCursorPosition","paramcount":3,"ASM":"PUSH EBP\nMOV EBP,ESP\nAND ESP,0xfffffff8\n","jumpback":"0x6f8f3da6"},{"address":"0x6f8f4140","returntype":"int","params":[{"type":"UIControl * *","size":4,"name":"ppControl","location":"Stack[0x04]","idx":0}],"name":"HandleTextInputMouseClick","paramcount":1,"ASM":"PUSH ECX\nMOV EAX,dword ptr [ESP + 0x8]\n","jumpback":"0x6f8f4145"},{"address":"0x6f8f4350","returntype":"void","params":[{"type":"int *","size":4,"name":"pTextEditControl","location":"Stack[0x04]","idx":0},{"type":"int *","size":4,"name":"pOutCursorX","location":"Stack[0x08]","idx":1},{"type":"int *","size":4,"name":"pOutCursorY","location":"Stack[0x0C]","idx":2}],"name":"CalculateTextEditCursorPosition","paramcount":3,"ASM":"PUSH EBP\nMOV EBP,ESP\nAND ESP,0xfffffff8\n","jumpback":"0x6f8f4356"},{"address":"0x6f8f4790","returntype":"int","params":[{"type":"Unicode *","size":4,"name":"pTextString","location":"Stack[0x04]","idx":0},{"type":"int *","size":4,"name":"pRenderContext","location":"Stack[0x08]","idx":1}],"name":"CalculateTextRenderHeight","paramcount":2,"ASM":"PUSH EBP\nMOV EBP,ESP\nAND ESP,0xfffffff8\n","jumpback":"0x6f8f4796"},{"address":"0x6f8f4a20","returntype":"uint","params":[{"type":"UIControl *","size":4,"name":"pControl","location":"ECX","idx":0}],"name":"RenderTextInputControl","paramcount":1,"ASM":"PUSH EBP\nMOV EBP,ESP\nAND ESP,0xfffffff8\n","jumpback":"0x6f8f4a26"},{"address":"0x6f8f4df0","returntype":"undefined4","params":[{"type":"int *","size":4,"name":"param_1","location":"ECX","idx":0},{"type":"Unicode *","size":4,"name":"param_2","location":"EDX","idx":1}],"name":"Ordinal_10042","paramcount":2,"ASM":"PUSH EBX\nPUSH ESI\nMOV ESI,ECX\nTEST ESI,ESI\n","jumpback":"0x6f8f4df6"},{"address":"0x6f8f4e70","returntype":"undefined","params":[{"type":"int *","size":4,"name":"param_1","location":"ECX","idx":0},{"type":"char *","size":4,"name":"param_2","location":"EDX","idx":1}],"name":"Ordinal_10185","paramcount":2,"ASM":"SUB ESP,0x200\n","jumpback":"0x6f8f4e76"},{"address":"0x6f8f4ec0","returntype":"int","params":[{"type":"UIControl *","size":4,"name":"pControl","location":"Stack[0x04]","idx":0},{"type":"char","size":1,"name":"keyCode","location":"Stack[0x08]","idx":1}],"name":"ProcessTextEditKeyboardInput","paramcount":2,"ASM":"SUB ESP,0x2c\nPUSH ESI\nMOV ESI,EAX\n","jumpback":"0x6f8f4ec6"},{"address":"0x6f8f5450","returntype":"undefined4","params":[{"type":"int *","size":4,"name":"param_1","location":"ECX","idx":0},{"type":"byte","size":1,"name":"param_2","location":"DL","idx":1}],"name":"Ordinal_10064","paramcount":2,"ASM":"SUB ESP,0xb9c\n","jumpback":"0x6f8f5456"},{"address":"0x6f8f59e0","returntype":"undefined","params":[{"type":"int *","size":4,"name":"param_1","location":"ECX","idx":0}],"name":"Ordinal_10048","paramcount":1,"ASM":"TEST ECX,ECX\nJNZ 0x6f8f59e8\nPUSH 0x6e\n","jumpback":"0x6f8f59e6"},{"address":"0x6f8f5a10","returntype":"void","params":[{"type":"UIControl * *","size":4,"name":"ppControl","location":"Stack[0x04]","idx":0}],"name":"ValidateAndScrollTextControl","paramcount":1,"ASM":"PUSH ESI\nMOV ESI,dword ptr [ESP + 0x8]\n","jumpback":"0x6f8f5a15"},{"address":"0x6f8f5a80","returntype":"uint","params":[{"type":"UIControl *","size":4,"name":"pControl","location":"ECX","idx":0}],"name":"RenderMultiLineTextControl","paramcount":1,"ASM":"PUSH EBP\nMOV EBP,ESP\nAND ESP,0xfffffff8\n","jumpback":"0x6f8f5a86"},{"address":"0x6f8f61b0","returntype":"undefined4 *","params":[{"type":"undefined4","size":4,"name":"param_1","location":"ECX","idx":0},{"type":"undefined4","size":4,"name":"param_2","location":"EDX","idx":1},{"type":"undefined4","size":4,"name":"param_3","location":"Stack[0x04]","idx":2},{"type":"undefined4","size":4,"name":"param_4","location":"Stack[0x08]","idx":3},{"type":"undefined4","size":4,"name":"param_5","location":"Stack[0x0C]","idx":4},{"type":"undefined4","size":4,"name":"param_6","location":"Stack[0x10]","idx":5},{"type":"undefined4","size":4,"name":"param_7","location":"Stack[0x14]","idx":6},{"type":"undefined4","size":4,"name":"param_8","location":"Stack[0x18]","idx":7},{"type":"undefined4","size":4,"name":"param_9","location":"Stack[0x1C]","idx":8},{"type":"uint","size":4,"name":"param_10","location":"Stack[0x20]","idx":9},{"type":"undefined4 *","size":4,"name":"param_11","location":"Stack[0x24]","idx":10}],"name":"Ordinal_10057","paramcount":11,"ASM":"PUSH EBX\nPUSH EBP\nPUSH ESI\nPUSH EDI\nXOR ESI,ESI\n","jumpback":"0x6f8f61b6"},{"address":"0x6f8f6310","returntype":"int","params":[{"type":"MSG *","size":4,"name":"pMsg","location":"Stack[0x04]","idx":0}],"name":"ProcessSpaceKeyMessage","paramcount":1,"ASM":"MOV ECX,dword ptr [ESP + 0x4]\nMOV EAX,dword ptr [ECX]\n","jumpback":"0x6f8f6316"},{"address":"0x6f8f6360","returntype":"int","params":[{"type":"TimerCallbackConfig *","size":4,"name":"pTimerConfig","location":"ECX","idx":0}],"name":"ProcessTimerCallback","paramcount":1,"ASM":"SUB ESP,0x20\nPUSH ESI\nMOV ESI,ECX\n","jumpback":"0x6f8f6366"},{"address":"0x6f8f63e0","returntype":"uint","params":[{"type":"TimerCallbackConfig *","size":4,"name":"pConfig","location":"ECX","idx":0}],"name":"ValidateAndExecuteTimerCallback","paramcount":1,"ASM":"SUB ESP,0x20\nPUSH ESI\nMOV ESI,ECX\n","jumpback":"0x6f8f63e6"},{"address":"0x6f8f6470","returntype":"undefined","params":[{"type":"int *","size":4,"name":"param_1","location":"ECX","idx":0}],"name":"Ordinal_10201","paramcount":1,"ASM":"CMP dword ptr [ECX],0x8\nJZ 0x6f8f6491\n","jumpback":"0x6f8f6475"},{"address":"0x6f8f64a0","returntype":"undefined","params":[{"type":"int *","size":4,"name":"param_1","location":"ECX","idx":0}],"name":"Ordinal_10069","paramcount":1,"ASM":"CMP dword ptr [ECX],0x8\nJZ 0x6f8f64c1\n","jumpback":"0x6f8f64a5"},{"address":"0x6f8f64d0","returntype":"GameObjectNode *","params":[{"type":"uint","size":4,"name":"objectId","location":"Stack[0x04]","idx":0},{"type":"uint","size":4,"name":"userData","location":"Stack[0x08]","idx":1}],"name":"CreateGameObjectNode","paramcount":2,"ASM":"PUSH ESI\nPUSH EDI\nPUSH 0x0\nPUSH 0x1c\n","jumpback":"0x6f8f64d6"},{"address":"0x6f8f6580","returntype":"int","params":[{"type":"int *","size":4,"name":"pControl","location":"ECX","idx":0}],"name":"Ordinal_10104","paramcount":1,"ASM":"JMP 0x6f8f7fc0\n","jumpback":""},{"address":"0x6f8f6590","returntype":"uint","params":[{"type":"EventContext *","size":4,"name":"pEventContext","location":"Stack[0x04]","idx":0}],"name":"DispatchUIEventHandler","paramcount":1,"ASM":"MOV EDX,dword ptr [ESP + 0x4]\nMOV EAX,dword ptr [EDX]\n","jumpback":"0x6f8f6596"},{"address":"0x6f8f6600","returntype":"uint","params":[{"type":"UIContext * *","size":4,"name":"ppUIContext","location":"Stack[0x04]","idx":0}],"name":"ProcessUIMouseClick","paramcount":1,"ASM":"PUSH EBP\nMOV EBP,dword ptr [ESP + 0x8]\n","jumpback":"0x6f8f6605"},{"address":"0x6f8f66c0","returntype":"void","params":[],"name":"UnloadPentspinCursor","paramcount":0,"ASM":"PUSH ESI\nMOV ESI,dword ptr [0x6f9014ec]\n","jumpback":"0x6f8f66c7"},{"address":"0x6f8f66f0","returntype":"int","params":[{"type":"int *","size":4,"name":"param_1","location":"ECX","idx":0}],"name":"Ordinal_10145","paramcount":1,"ASM":"CMP dword ptr [ECX],0x7\nJZ 0x6f8f6714\n","jumpback":"0x6f8f66f5"},{"address":"0x6f8f6720","returntype":"int","params":[{"type":"int *","size":4,"name":"param_1","location":"ECX","idx":0},{"type":"int","size":4,"name":"param_2","location":"EDX","idx":1}],"name":"Ordinal_10046","paramcount":2,"ASM":"CMP dword ptr [ECX],0x7\nJZ 0x6f8f6744\n","jumpback":"0x6f8f6725"},{"address":"0x6f8f6770","returntype":"int","params":[{"type":"int *","size":4,"name":"param_1","location":"ECX","idx":0}],"name":"Ordinal_10039","paramcount":1,"ASM":"CMP dword ptr [ECX],0x7\nJZ 0x6f8f6794\n","jumpback":"0x6f8f6775"},{"address":"0x6f8f67c0","returntype":"int","params":[{"type":"tagMSG *","size":4,"name":"pMsg","location":"Stack[0x04]","idx":0}],"name":"ProcessMenuKeyboardMessage","paramcount":1,"ASM":"PUSH ESI\nPUSH EDI\nMOV EDI,dword ptr [ESP + 0xc]\n","jumpback":"0x6f8f67c6"},{"address":"0x6f8f6990","returntype":"void","params":[],"name":"LoadPentspinCursor","paramcount":0,"ASM":"MOV EAX,[0x6f9014ec]\n","jumpback":"0x6f8f6995"},{"address":"0x6f8f69f0","returntype":"int","params":[{"type":"GameObjectNode *","size":4,"name":"pGameObject","location":"ECX","idx":0}],"name":"RenderScreenObjectList","paramcount":1,"ASM":"SUB ESP,0x50\nPUSH ESI\nMOV ESI,ECX\n","jumpback":"0x6f8f69f6"},{"address":"0x6f8f6b90","returntype":"undefined","params":[{"type":"int *","size":4,"name":"param_1","location":"ECX","idx":0},{"type":"Unicode *","size":4,"name":"param_2","location":"EDX","idx":1},{"type":"undefined4","size":4,"name":"param_3","location":"Stack[0x04]","idx":2},{"type":"/Demangler/Unicode\npack(disabled)\nStructure Unicode {\n}\nLength: 0 Alignment: 1\n","size":1,"name":"param_4","location":"Stack[0x08]","idx":3},{"type":"undefined4","size":4,"name":"param_5","location":"Stack[0x0C]","idx":4},{"type":"int","size":4,"name":"param_6","location":"Stack[0x10]","idx":5},{"type":"int","size":4,"name":"param_7","location":"Stack[0x14]","idx":6}],"name":"Ordinal_10191","paramcount":7,"ASM":"PUSH EBX\nMOV EBX,ECX\nCMP dword ptr [EBX],0x7\n","jumpback":"0x6f8f6b96"},{"address":"0x6f8f6cf0","returntype":"undefined","params":[{"type":"int *","size":4,"name":"param_1","location":"ECX","idx":0},{"type":"char *","size":4,"name":"param_2","location":"EDX","idx":1},{"type":"undefined4","size":4,"name":"param_3","location":"Stack[0x04]","idx":2},{"type":"/Demangler/Unicode\npack(disabled)\nStructure Unicode {\n}\nLength: 0 Alignment: 1\n","size":1,"name":"param_4","location":"Stack[0x08]","idx":3},{"type":"undefined4","size":4,"name":"param_5","location":"Stack[0x0C]","idx":4},{"type":"int","size":4,"name":"param_6","location":"Stack[0x10]","idx":5},{"type":"int","size":4,"name":"param_7","location":"Stack[0x14]","idx":6}],"name":"Ordinal_10175","paramcount":7,"ASM":"SUB ESP,0x200\n","jumpback":"0x6f8f6cf6"},{"address":"0x6f8f6d70","returntype":"undefined","params":[{"type":"int *","size":4,"name":"param_1","location":"ECX","idx":0}],"name":"Ordinal_10012","paramcount":1,"ASM":"PUSH EDI\nMOV EDI,ECX\nCMP dword ptr [EDI],0x7\n","jumpback":"0x6f8f6d76"},{"address":"0x6f8f6dd0","returntype":"undefined4 *","params":[{"type":"undefined4","size":4,"name":"param_1","location":"ECX","idx":0},{"type":"undefined4","size":4,"name":"param_2","location":"EDX","idx":1},{"type":"Unicode *","size":4,"name":"param_3","location":"Stack[0x04]","idx":2},{"type":"int","size":4,"name":"param_4","location":"Stack[0x08]","idx":3},{"type":"int *","size":4,"name":"param_5","location":"Stack[0x0C]","idx":4},{"type":"int *","size":4,"name":"param_6","location":"Stack[0x10]","idx":5}],"name":"Ordinal_10076","paramcount":6,"ASM":"PUSH ECX\nPUSH EBX\nPUSH EBP\nPUSH ESI\nPUSH EDI\n","jumpback":"0x6f8f6dd5"},{"address":"0x6f8f7020","returntype":"void","params":[{"type":"int *","size":4,"name":"pRenderState","location":"Stack[0x04]","idx":0}],"name":"ResetRenderState","paramcount":1,"ASM":"PUSH ESI\nMOV ESI,dword ptr [ESP + 0x8]\n","jumpback":"0x6f8f7025"},{"address":"0x6f8f7050","returntype":"EventHandler *","params":[],"name":"GetCurrentEventTarget","paramcount":0,"ASM":"MOV EAX,[0x6f9014b8]\n","jumpback":"0x6f8f7055"},{"address":"0x6f8f7060","returntype":"undefined4 *","params":[{"type":"undefined4 *","size":4,"name":"param_1","location":"Stack[0x04]","idx":0}],"name":"Ordinal_10044","paramcount":1,"ASM":"MOV EAX,dword ptr [ESP + 0x4]\nTEST EAX,EAX\n","jumpback":"0x6f8f7066"},{"address":"0x6f8f7070","returntype":"undefined4","params":[{"type":"undefined4","size":4,"name":"param_1","location":"Stack[0x04]","idx":0},{"type":"undefined4","size":4,"name":"param_2","location":"Stack[0x08]","idx":1}],"name":"Ordinal_10196","paramcount":2,"ASM":"MOV EAX,dword ptr [ESP + 0x4]\nMOV ECX,dword ptr [ESP + 0x8]\n","jumpback":"0x6f8f7078"},{"address":"0x6f8f7090","returntype":"undefined4","params":[],"name":"Ordinal_10040","paramcount":0,"ASM":"MOV EAX,[0x6f9014c4]\n","jumpback":"0x6f8f7095"},{"address":"0x6f8f70a0","returntype":"undefined","params":[{"type":"undefined4","size":4,"name":"param_1","location":"Stack[0x04]","idx":0}],"name":"Ordinal_10031","paramcount":1,"ASM":"MOV EAX,dword ptr [ESP + 0x4]\nMOV [0x6f9014b4],EAX\n","jumpback":"0x6f8f70a9"},{"address":"0x6f8f70b0","returntype":"undefined","params":[{"type":"int","size":4,"name":"param_1","location":"Stack[0x04]","idx":0},{"type":"int","size":4,"name":"param_2","location":"Stack[0x08]","idx":1}],"name":"Ordinal_10001","paramcount":2,"ASM":"MOV EAX,dword ptr [ESP + 0x8]\nTEST EAX,EAX\n","jumpback":"0x6f8f70b6"},{"address":"0x6f8f70e0","returntype":"undefined","params":[{"type":"undefined4","size":4,"name":"param_1","location":"Stack[0x04]","idx":0}],"name":"Ordinal_10149","paramcount":1,"ASM":"MOV EAX,dword ptr [ESP + 0x4]\nMOV [0x6f8ffba0],EAX\n","jumpback":"0x6f8f70e9"},{"address":"0x6f8f70f0","returntype":"GameObjectNode *","params":[{"type":"GameObjectNode *","size":4,"name":"pFirstNode","location":"Stack[0x04]","idx":0},{"type":"GameObjectNode *","size":4,"name":"pSecondNode","location":"Stack[0x08]","idx":1}],"name":"SelectCloserObjectNode","paramcount":2,"ASM":"MOV EAX,dword ptr [ESP + 0x8]\nPUSH EBP\n","jumpback":"0x6f8f70f5"},{"address":"0x6f8f7210","returntype":"bool","params":[{"type":"BoundsChecker *","size":4,"name":"pBoundsChecker","location":"ECX","idx":0},{"type":"int *","size":4,"name":"pCoordinates","location":"EDX","idx":1}],"name":"CheckPointInBounds","paramcount":2,"ASM":"PUSH EDI\nMOV EDI,EAX\nMOV EAX,dword ptr [ECX + 0x38]\n","jumpback":"0x6f8f7216"},{"address":"0x6f8f7260","returntype":"void","params":[{"type":"int","size":4,"name":"resourceHandle","location":"Stack[0x04]","idx":0}],"name":"SaveScreenshotToJpeg","paramcount":1,"ASM":"PUSH EBP\nMOV EBP,ESP\nAND ESP,0xfffffff8\n","jumpback":"0x6f8f7266"},{"address":"0x6f8f7360","returntype":"void","params":[{"type":"EventHandler *","size":4,"name":"pEventHandler","location":"Stack[0x04]","idx":0}],"name":"ProcessEventHandler","paramcount":1,"ASM":"PUSH ESI\nMOV ESI,dword ptr [ESP + 0x8]\n","jumpback":"0x6f8f7365"},{"address":"0x6f8f7420","returntype":"void","params":[{"type":"MSG *","size":4,"name":"pMsg","location":"Stack[0x04]","idx":0}],"name":"HandleSystemCommand","paramcount":1,"ASM":"SUB ESP,0x98\n","jumpback":"0x6f8f7426"},{"address":"0x6f8f76f0","returntype":"void","params":[],"name":"ResetAndCallOrdinal511","paramcount":0,"ASM":"MOV dword ptr [0x6f9014c8],0x0\n","jumpback":"0x6f8f76fa"},{"address":"0x6f8f7740","returntype":"typedef LRESULT LONG_PTR","params":[{"type":"typedef HWND HWND__ *","size":4,"name":"hWnd","location":"Stack[0x04]","idx":0},{"type":"typedef UINT uint","size":4,"name":"uMsg","location":"Stack[0x08]","idx":1},{"type":"typedef WPARAM UINT_PTR","size":4,"name":"wParam","location":"Stack[0x0C]","idx":2},{"type":"typedef LPARAM LONG_PTR","size":4,"name":"lParam","location":"Stack[0x10]","idx":3}],"name":"WindowMessageHandler","paramcount":4,"ASM":"MOV EAX,[0x6f9014c0]\n","jumpback":"0x6f8f7745"},{"address":"0x6f8f7800","returntype":"void","params":[{"type":"tagRECT *","size":4,"name":"pRect","location":"Stack[0x04]","idx":0}],"name":"InitializeRenderingParameters","paramcount":1,"ASM":"PUSH ECX\nMOV EAX,dword ptr [ESP + 0x8]\n","jumpback":"0x6f8f7805"},{"address":"0x6f8f7880","returntype":"uint","params":[],"name":"GetGlobalInitFlag","paramcount":0,"ASM":"MOV EAX,[0x6f9014c8]\n","jumpback":"0x6f8f7885"},{"address":"0x6f8f7890","returntype":"undefined","params":[{"type":"RECT *","size":4,"name":"param_1","location":"Stack[0x04]","idx":0}],"name":"Ordinal_10156","paramcount":1,"ASM":"MOV EAX,[0x6f90148c]\n","jumpback":"0x6f8f7895"},{"address":"0x6f8f78b0","returntype":"uint","params":[{"type":"int","size":4,"name":"param_1","location":"ECX","idx":0}],"name":"Ordinal_10102","paramcount":1,"ASM":"TEST ECX,ECX\nJNZ 0x6f8f78d3\nPUSH 0x349\n","jumpback":"0x6f8f78b9"},{"address":"0x6f8f78e0","returntype":"undefined","params":[{"type":"int","size":4,"name":"param_1","location":"ECX","idx":0},{"type":"int","size":4,"name":"param_2","location":"EDX","idx":1}],"name":"Ordinal_10131","paramcount":2,"ASM":"TEST ECX,ECX\nJNZ 0x6f8f7903\nPUSH 0x33b\n","jumpback":"0x6f8f78e9"},{"address":"0x6f8f7920","returntype":"uint","params":[{"type":"int","size":4,"name":"param_1","location":"ECX","idx":0}],"name":"Ordinal_10108","paramcount":1,"ASM":"TEST ECX,ECX\nJNZ 0x6f8f7943\nPUSH 0x32e\n","jumpback":"0x6f8f7929"},{"address":"0x6f8f7950","returntype":"undefined","params":[{"type":"int","size":4,"name":"param_1","location":"ECX","idx":0},{"type":"int","size":4,"name":"param_2","location":"EDX","idx":1}],"name":"Ordinal_10147","paramcount":2,"ASM":"TEST ECX,ECX\nJZ 0x6f8f796d\nTEST EDX,EDX\n","jumpback":"0x6f8f7956"},{"address":"0x6f8f7970","returntype":"uint","params":[],"name":"ProcessUIControlFreeListByMask","paramcount":0,"ASM":"MOV EAX,[0x6f9014a8]\n","jumpback":"0x6f8f7975"},{"address":"0x6f8f7a00","returntype":"uint","params":[{"type":"void *","size":4,"name":"pControl","location":"ECX","idx":0}],"name":"AddUIControlToFreeList","paramcount":1,"ASM":"MOV EAX,[0x6f9014a4]\n","jumpback":"0x6f8f7a05"},{"address":"0x6f8f7a40","returntype":"int","params":[{"type":"GameObjectNode *","size":4,"name":"pNode","location":"ECX","idx":0}],"name":"AppendGameObjectNode","paramcount":1,"ASM":"MOV EAX,[0x6f9014a0]\n","jumpback":"0x6f8f7a45"},{"address":"0x6f8f7a80","returntype":"undefined4","params":[],"name":"Ordinal_10034","paramcount":0,"ASM":"MOV EAX,[0x6f9014b0]\n","jumpback":"0x6f8f7a85"},{"address":"0x6f8f7a90","returntype":"undefined4","params":[{"type":"int *","size":4,"name":"param_1","location":"Stack[0x04]","idx":0}],"name":"Ordinal_10053","paramcount":1,"ASM":"MOV ECX,dword ptr [0x6f9014ac]\n","jumpback":"0x6f8f7a96"},{"address":"0x6f8f7ad0","returntype":"undefined4","params":[{"type":"int","size":4,"name":"param_1","location":"Stack[0x04]","idx":0},{"type":"undefined4","size":4,"name":"param_2","location":"Stack[0x08]","idx":1}],"name":"Ordinal_10047","paramcount":2,"ASM":"MOV EAX,dword ptr [ESP + 0x8]\nMOV ECX,dword ptr [ESP + 0x4]\n","jumpback":"0x6f8f7ad8"},{"address":"0x6f8f7af0","returntype":"undefined4","params":[],"name":"Ordinal_10199","paramcount":0,"ASM":"MOV dword ptr [0x6f8ffd30],0x0\n","jumpback":"0x6f8f7afa"},{"address":"0x6f8f7b00","returntype":"undefined","params":[{"type":"undefined4","size":4,"name":"param_1","location":"Stack[0x04]","idx":0}],"name":"Ordinal_10115","paramcount":1,"ASM":"MOV EAX,dword ptr [ESP + 0x4]\nMOV [0x6f9a9cf0],EAX\n","jumpback":"0x6f8f7b09"},{"address":"0x6f8f7b10","returntype":"undefined4","params":[{"type":"undefined4","size":4,"name":"param_1","location":"Stack[0x04]","idx":0}],"name":"Ordinal_10099","paramcount":1,"ASM":"MOV EAX,dword ptr [ESP + 0x4]\nMOV [0x6f9014dc],EAX\n","jumpback":"0x6f8f7b19"},{"address":"0x6f8f7b30","returntype":"undefined4","params":[{"type":"undefined4","size":4,"name":"param_1","location":"Stack[0x04]","idx":0}],"name":"Ordinal_10006","paramcount":1,"ASM":"MOV EAX,dword ptr [ESP + 0x4]\nMOV [0x6f901494],EAX\n","jumpback":"0x6f8f7b39"},{"address":"0x6f8f7b50","returntype":"undefined","params":[],"name":"Ordinal_10203","paramcount":0,"ASM":"JMP 0x6f8e77ec\n","jumpback":""},{"address":"0x6f8f7b60","returntype":"undefined4","params":[{"type":"undefined4","size":4,"name":"param_1","location":"Stack[0x04]","idx":0}],"name":"Ordinal_10176","paramcount":1,"ASM":"MOV EAX,[0x6f90149c]\n","jumpback":"0x6f8f7b65"},{"address":"0x6f8f7c00","returntype":"undefined","params":[{"type":"int","size":4,"name":"param_1","location":"Stack[0x04]","idx":0}],"name":"Ordinal_10141","paramcount":1,"ASM":"PUSH ESI\nMOV ESI,dword ptr [ESP + 0x8]\n","jumpback":"0x6f8f7c05"},{"address":"0x6f8f7c40","returntype":"undefined","params":[],"name":"Ordinal_10148","paramcount":0,"ASM":"MOV dword ptr [0x6f90149c],0x0\n","jumpback":"0x6f8f7c4a"},{"address":"0x6f8f7c50","returntype":"undefined4","params":[],"name":"Ordinal_10032","paramcount":0,"ASM":"XOR EAX,EAX\nPUSH 0x1\nMOV [0x6f9014c0],EAX\n","jumpback":"0x6f8f7c59"},{"address":"0x6f8f7c70","returntype":"undefined4","params":[{"type":"undefined4","size":4,"name":"param_1","location":"Stack[0x04]","idx":0}],"name":"Ordinal_10143","paramcount":1,"ASM":"MOV EAX,dword ptr [ESP + 0x4]\nMOV [0x6f9014bc],EAX\n","jumpback":"0x6f8f7c79"},{"address":"0x6f8f7c90","returntype":"undefined4","params":[{"type":"undefined4","size":4,"name":"param_1","location":"Stack[0x04]","idx":0},{"type":"undefined4","size":4,"name":"param_2","location":"Stack[0x08]","idx":1}],"name":"Ordinal_10052","paramcount":2,"ASM":"PUSH EBX\nMOV EBX,dword ptr [ESP + 0x8]\n","jumpback":"0x6f8f7c95"},{"address":"0x6f8f7d40","returntype":"undefined","params":[],"name":"Ordinal_10142","paramcount":0,"ASM":"MOV EAX,dword ptr [ESP + 0x10]\nPUSH EAX\n","jumpback":"0x6f8f7d45"},{"address":"0x6f8f7d70","returntype":"void","params":[{"type":"int","size":4,"name":"param_1","location":"Stack[0x04]","idx":0}],"name":"CaptureScreenshotIfEnabled","paramcount":1,"ASM":"PUSH EBX\nPUSH ESI\nPUSH EDI\nMOV EDI,dword ptr [ESP + 0x10]\n","jumpback":"0x6f8f7d77"},{"address":"0x6f8f7e60","returntype":"void","params":[{"type":"InitContext *","size":4,"name":"pContext","location":"Stack[0x04]","idx":0}],"name":"InitializeGlobalContext","paramcount":1,"ASM":"MOV EAX,[0x6f9014c8]\n","jumpback":"0x6f8f7e65"},{"address":"0x6f8f7eb0","returntype":"undefined","params":[],"name":"Ordinal_10187","paramcount":0,"ASM":"JMP 0x7b662ab0\n","jumpback":""},{"address":"0x6f8f7eba","returntype":"void","params":[],"name":"UpdateScreenCaptureWithThrottle","paramcount":0,"ASM":"MOV EDX,dword ptr [0x6f901484]\n","jumpback":"0x6f8f7ec0"},{"address":"0x6f8f7f40","returntype":"void","params":[],"name":"InitializeSystemParameters","paramcount":0,"ASM":"SUB ESP,0x48\nPUSH EBX\nMOV EBX,dword ptr [0x6f9014dc]\n","jumpback":"0x6f8f7f4a"},{"address":"0x6f8f7fc0","returntype":"int","params":[{"type":"int *","size":4,"name":"pControl","location":"ECX","idx":0}],"name":"RemoveUIControlFromList","paramcount":1,"ASM":"MOV EAX,[0x6f9014b0]\n","jumpback":"0x6f8f7fc5"},{"address":"0x6f8f8060","returntype":"undefined4","params":[],"name":"Ordinal_10144","paramcount":0,"ASM":"PUSH ESI\nXOR ESI,ESI\nPUSH EDI\nMOV dword ptr [0x6f9014a8],ESI\n","jumpback":"0x6f8f806a"},{"address":"0x6f8f8280","returntype":"void","params":[{"type":"void *","size":4,"name":"pObject","location":"Stack[0x04]","idx":0}],"name":"InitializeObjectState","paramcount":1,"ASM":"CALL 0x6f8f7eb0\n","jumpback":"0x6f8f8285"},{"address":"0x6f8f82a0","returntype":"void","params":[{"type":"EventContext *","size":4,"name":"pEventCtx","location":"Stack[0x04]","idx":0}],"name":"DispatchEventHandlerChain","paramcount":1,"ASM":"MOV EAX,[0x6f9014b0]\n","jumpback":"0x6f8f82a5"},{"address":"0x6f8f8330","returntype":"void","params":[{"type":"int * *","size":4,"name":"ppOutputNode","location":"Stack[0x04]","idx":0}],"name":"FindAndProcessTargetNode","paramcount":1,"ASM":"MOV ECX,dword ptr [0x6f9014b4]\n","jumpback":"0x6f8f8336"},{"address":"0x6f8f8370","returntype":"void","params":[{"type":"EventContext *","size":4,"name":"pEventContext","location":"Stack[0x04]","idx":0}],"name":"DispatchEventHandlers","paramcount":1,"ASM":"MOV ECX,dword ptr [0x6f9014b0]\n","jumpback":"0x6f8f8376"},{"address":"0x6f8f8400","returntype":"undefined4","params":[],"name":"Ordinal_10100","paramcount":0,"ASM":"PUSH EDI\nCALL 0x6f8f3110\n","jumpback":"0x6f8f8406"},{"address":"0x6f8f8490","returntype":"undefined4","params":[{"type":"undefined4 *","size":4,"name":"param_1","location":"Stack[0x04]","idx":0}],"name":"Ordinal_10050","paramcount":1,"ASM":"PUSH ESI\nMOV ESI,dword ptr [ESP + 0x8]\n","jumpback":"0x6f8f8495"},{"address":"0x6f8f8560","returntype":"int *","params":[{"type":"undefined4 *","size":4,"name":"param_1","location":"Stack[0x04]","idx":0}],"name":"Ordinal_10098","paramcount":1,"ASM":"MOV EAX,dword ptr [ESP + 0x4]\nMOV ECX,dword ptr [EAX + 0x1c]\n","jumpback":"0x6f8f8567"},{"address":"0x6f8f8750","returntype":"void","params":[],"name":"CleanupChatUINodes","paramcount":0,"ASM":"PUSH EBX\nMOV EBX,dword ptr [0x6f9a9e30]\n","jumpback":"0x6f8f8757"},{"address":"0x6f8f87e0","returntype":"undefined","params":[],"name":"Ordinal_10024","paramcount":0,"ASM":"SUB ESP,0x50\nCALL 0x6f8e77f8\n","jumpback":"0x6f8f87e8"},{"address":"0x6f8f8980","returntype":"undefined4","params":[{"type":"undefined *","size":4,"name":"param_1","location":"Stack[0x04]","idx":0}],"name":"Ordinal_10014","paramcount":1,"ASM":"SUB ESP,0x20\nPUSH EBX\nPUSH EBP\n","jumpback":"0x6f8f8985"},{"address":"0x6f8f8a9c","returntype":"void","params":[],"name":"InitializeFloatFormatPointers","paramcount":0,"ASM":"MOV EAX,0x6f8f8f25\n","jumpback":"0x6f8f8aa1"},{"address":"0x6f8f8ad4","returntype":"void","params":[{"type":"int","size":4,"name":"param_1","location":"Stack[0x04]","idx":0}],"name":"__fpmath","paramcount":1,"ASM":"CALL 0x6f8f8a9c\n","jumpback":"0x6f8f8ad9"},{"address":"0x6f8f8af4","returntype":"ulonglong","params":[],"name":"ConvertFloatToLongWithRounding","paramcount":0,"ASM":"PUSH EBP\nMOV EBP,ESP\nSUB ESP,0x20\n","jumpback":"0x6f8f8afa"},{"address":"0x6f8f8b69","returntype":"void","params":[{"type":"char *","size":4,"name":"_Buf","location":"Stack[0x04]","idx":0}],"name":"__forcdecpt","paramcount":1,"ASM":"PUSH ESI\nMOV ESI,dword ptr [ESP + 0x8]\n","jumpback":"0x6f8f8b6e"},{"address":"0x6f8f8ba5","returntype":"void","params":[{"type":"char *","size":4,"name":"_Buf","location":"Stack[0x04]","idx":0}],"name":"__cropzeros","paramcount":1,"ASM":"MOV EAX,dword ptr [ESP + 0x4]\nPUSH EBX\n","jumpback":"0x6f8f8baa"},{"address":"0x6f8f8c0a","returntype":"void","params":[{"type":"int","size":4,"name":"flag","location":"Stack[0x04]","idx":0},{"type":"char *","size":4,"name":"argument","location":"Stack[0x08]","idx":1},{"type":"char *","size":4,"name":"number","location":"Stack[0x0C]","idx":2}],"name":"__fassign","paramcount":3,"ASM":"PUSH EBP\nMOV EBP,ESP\nPUSH ECX\nPUSH ECX\n","jumpback":"0x6f8f8c0f"},{"address":"0x6f8f8c48","returntype":"undefined","params":[],"name":"__shift","paramcount":0,"ASM":"TEST EDI,EDI\nPUSH ESI\nMOV ESI,EAX\n","jumpback":"0x6f8f8c4d"},{"address":"0x6f8f8c65","returntype":"undefined","params":[{"type":"int","size":4,"name":"param_1","location":"Stack[0x04]","idx":0},{"type":"int","size":4,"name":"param_2","location":"Stack[0x08]","idx":1},{"type":"char","size":1,"name":"param_3","location":"Stack[0x0C]","idx":2}],"name":"__cftoe2","paramcount":3,"ASM":"PUSH EBP\nMOV EBP,ESP\nCMP byte ptr [EBP + 0x10],0x0\n","jumpback":"0x6f8f8c6c"},{"address":"0x6f8f8d13","returntype":"typedef errno_t int","params":[{"type":"double *","size":4,"name":"pDoubleValue","location":"Stack[0x04]","idx":0},{"type":"char *","size":4,"name":"buffer","location":"Stack[0x08]","idx":1},{"type":"int","size":4,"name":"format","location":"Stack[0x0C]","idx":2},{"type":"int","size":4,"name":"precision","location":"Stack[0x10]","idx":3}],"name":"ConvertFloatToScientificNotation","paramcount":4,"ASM":"PUSH EBP\nMOV EBP,ESP\nSUB ESP,0x2c\n","jumpback":"0x6f8f8d19"},{"address":"0x6f8f8d83","returntype":"undefined1 *","params":[{"type":"undefined1 *","size":4,"name":"param_1","location":"Stack[0x04]","idx":0},{"type":"typedef size_t uint","size":4,"name":"param_2","location":"Stack[0x08]","idx":1},{"type":"char","size":1,"name":"param_3","location":"Stack[0x0C]","idx":2}],"name":"__cftof2","paramcount":3,"ASM":"PUSH EBP\nMOV EBP,ESP\nPUSH EBX\nPUSH ESI\n","jumpback":"0x6f8f8d88"},{"address":"0x6f8f8e1f","returntype":"void","params":[{"type":"double *","size":4,"name":"pDoubleValue","location":"Stack[0x04]","idx":0},{"type":"char *","size":4,"name":"pBuffer","location":"Stack[0x08]","idx":1},{"type":"typedef size_t uint","size":4,"name":"precision","location":"Stack[0x0C]","idx":2}],"name":"ConvertFloatToFixedPointFormat","paramcount":3,"ASM":"PUSH EBP\nMOV EBP,ESP\nSUB ESP,0x2c\n","jumpback":"0x6f8f8e25"},{"address":"0x6f8f8e86","returntype":"void","params":[{"type":"double *","size":4,"name":"pValue","location":"Stack[0x04]","idx":0},{"type":"char *","size":4,"name":"buffer","location":"Stack[0x08]","idx":1},{"type":"typedef size_t uint","size":4,"name":"precision","location":"Stack[0x0C]","idx":2},{"type":"int","size":4,"name":"caps","location":"Stack[0x10]","idx":3}],"name":"ConvertFloatToGeneralFormat","paramcount":4,"ASM":"PUSH EBP\nMOV EBP,ESP\nSUB ESP,0x2c\n","jumpback":"0x6f8f8e8c"},{"address":"0x6f8f8f25","returntype":"typedef errno_t int","params":[{"type":"double *","size":4,"name":"arg","location":"Stack[0x04]","idx":0},{"type":"char *","size":4,"name":"buffer","location":"Stack[0x08]","idx":1},{"type":"typedef size_t uint","size":4,"name":"sizeInBytes","location":"Stack[0x0C]","idx":2},{"type":"int","size":4,"name":"format","location":"Stack[0x10]","idx":3},{"type":"int","size":4,"name":"precision","location":"Stack[0x14]","idx":4},{"type":"int","size":4,"name":"caps","location":"Stack[0x18]","idx":5}],"name":"__cfltcvt","paramcount":6,"ASM":"PUSH EBP\nMOV EBP,ESP\nCMP dword ptr [EBP + 0x10],0x65\n","jumpback":"0x6f8f8f2c"},{"address":"0x6f8f8f76","returntype":"undefined","params":[],"name":"__setdefaultprecision","paramcount":0,"ASM":"PUSH 0x30000\n","jumpback":"0x6f8f8f7b"},{"address":"0x6f8f8f88","returntype":"undefined4","params":[],"name":"__ms_p5_test_fdiv","paramcount":0,"ASM":"PUSH EBP\nMOV EBP,ESP\nSUB ESP,0x18\n","jumpback":"0x6f8f8f8e"},{"address":"0x6f8f8fc8","returntype":"undefined","params":[],"name":"__ms_p5_mp_test_fdiv","paramcount":0,"ASM":"PUSH 0x6f8fd1d4\n","jumpback":"0x6f8f8fcd"},{"address":"0x6f8f8ff1","returntype":"undefined4","params":[{"type":"int","size":4,"name":"param_1","location":"Stack[0x04]","idx":0},{"type":"int","size":4,"name":"param_2","location":"Stack[0x08]","idx":1}],"name":"__ZeroTail","paramcount":2,"ASM":"MOV EAX,dword ptr [ESP + 0x8]\nPUSH 0x20\n","jumpback":"0x6f8f8ff7"},{"address":"0x6f8f9023","returntype":"undefined","params":[{"type":"int","size":4,"name":"param_1","location":"Stack[0x04]","idx":0},{"type":"int","size":4,"name":"param_2","location":"Stack[0x08]","idx":1}],"name":"__IncMan","paramcount":2,"ASM":"MOV EAX,dword ptr [ESP + 0x8]\nPUSH ESI\n","jumpback":"0x6f8f9028"},{"address":"0x6f8f9070","returntype":"undefined4","params":[{"type":"int","size":4,"name":"param_1","location":"Stack[0x04]","idx":0},{"type":"int","size":4,"name":"param_2","location":"Stack[0x08]","idx":1}],"name":"__RoundMan","paramcount":2,"ASM":"PUSH EBP\nMOV EBP,ESP\nPUSH ECX\nAND dword ptr [EBP + -0x4],0x0\n","jumpback":"0x6f8f9078"},{"address":"0x6f8f90e2","returntype":"undefined","params":[{"type":"int","size":4,"name":"param_1","location":"Stack[0x04]","idx":0},{"type":"undefined4 *","size":4,"name":"param_2","location":"Stack[0x08]","idx":1}],"name":"__CopyMan","paramcount":2,"ASM":"MOV EAX,dword ptr [ESP + 0x8]\nMOV ECX,dword ptr [ESP + 0x4]\n","jumpback":"0x6f8f90ea"},{"address":"0x6f8f90fd","returntype":"undefined4","params":[{"type":"int","size":4,"name":"param_1","location":"Stack[0x04]","idx":0}],"name":"__IsZeroMan","paramcount":1,"ASM":"XOR EAX,EAX\nMOV ECX,dword ptr [ESP + 0x4]\n","jumpback":"0x6f8f9103"},{"address":"0x6f8f9116","returntype":"undefined","params":[{"type":"int","size":4,"name":"param_1","location":"Stack[0x04]","idx":0},{"type":"int","size":4,"name":"param_2","location":"Stack[0x08]","idx":1}],"name":"__ShrMan","paramcount":2,"ASM":"PUSH EBP\nMOV EBP,ESP\nSUB ESP,0xc\n","jumpback":"0x6f8f911c"},{"address":"0x6f8f9191","returntype":"undefined4","params":[{"type":"ushort *","size":4,"name":"param_1","location":"Stack[0x04]","idx":0},{"type":"uint *","size":4,"name":"param_2","location":"Stack[0x08]","idx":1},{"type":"int *","size":4,"name":"param_3","location":"Stack[0x0C]","idx":2}],"name":"__ld12cvt","paramcount":3,"ASM":"PUSH EBP\nMOV EBP,ESP\nSUB ESP,0x18\n","jumpback":"0x6f8f9197"},{"address":"0x6f8f92e9","returntype":"typedef INTRNCVT_STATUS enum_3272","params":[{"type":"_LDBL12 *","size":4,"name":"_Ifp","location":"Stack[0x04]","idx":0},{"type":"_CRT_DOUBLE *","size":4,"name":"_D","location":"Stack[0x08]","idx":1}],"name":"FID_conflict:__ld12tod","paramcount":2,"ASM":"PUSH 0x6f900cec\n","jumpback":"0x6f8f92ee"},{"address":"0x6f8f92ff","returntype":"typedef INTRNCVT_STATUS enum_3272","params":[{"type":"_LDBL12 *","size":4,"name":"_Ifp","location":"Stack[0x04]","idx":0},{"type":"_CRT_DOUBLE *","size":4,"name":"_D","location":"Stack[0x08]","idx":1}],"name":"FID_conflict:__ld12tod","paramcount":2,"ASM":"PUSH 0x6f900d04\n","jumpback":"0x6f8f9304"},{"address":"0x6f8f9315","returntype":"void","params":[{"type":"_CRT_DOUBLE *","size":4,"name":"pResult","location":"Stack[0x04]","idx":0},{"type":"byte *","size":4,"name":"pFloatString","location":"Stack[0x08]","idx":1}],"name":"ConvertStringToDouble","paramcount":2,"ASM":"PUSH EBP\nMOV EBP,ESP\nSUB ESP,0x14\n","jumpback":"0x6f8f931b"},{"address":"0x6f8f935a","returntype":"void","params":[{"type":"_CRT_DOUBLE *","size":4,"name":"pOutputDouble","location":"Stack[0x04]","idx":0},{"type":"byte *","size":4,"name":"pInputString","location":"Stack[0x08]","idx":1}],"name":"ConvertStringToDouble","paramcount":2,"ASM":"PUSH EBP\nMOV EBP,ESP\nSUB ESP,0x14\n","jumpback":"0x6f8f9360"},{"address":"0x6f8f939f","returntype":"typedef errno_t int","params":[{"type":"char *","size":4,"name":"_Buf","location":"Stack[0x04]","idx":0},{"type":"typedef size_t uint","size":4,"name":"_SizeInBytes","location":"Stack[0x08]","idx":1},{"type":"int","size":4,"name":"_Digits","location":"Stack[0x0C]","idx":2},{"type":"typedef STRFLT _strflt *","size":4,"name":"_PtFlt","location":"Stack[0x10]","idx":3}],"name":"__fptostr","paramcount":4,"ASM":"PUSH EBP\nMOV EBP,ESP\nMOV EDX,dword ptr [EBP + 0x10]\n","jumpback":"0x6f8f93a5"},{"address":"0x6f8f9416","returntype":"undefined","params":[{"type":"uint *","size":4,"name":"param_1","location":"Stack[0x04]","idx":0},{"type":"uint *","size":4,"name":"param_2","location":"Stack[0x08]","idx":1}],"name":"___dtold","paramcount":2,"ASM":"PUSH EBP\nMOV EBP,ESP\nPUSH ECX\nMOV EDX,dword ptr [EBP + 0xc]\n","jumpback":"0x6f8f941d"},{"address":"0x6f8f94d0","returntype":"_strflt *","params":[{"type":"double","size":8,"name":"inputValue","location":"Stack[0x04]","idx":0},{"type":"_strflt *","size":4,"name":"pOutputStrflt","location":"Stack[0x0C]","idx":1},{"type":"uint *","size":4,"name":"pMantissaBuffer","location":"Stack[0x10]","idx":2}],"name":"ConvertDoubleToFormattedFloat","paramcount":3,"ASM":"PUSH EBP\nMOV EBP,ESP\nSUB ESP,0x30\n","jumpback":"0x6f8f94d6"},{"address":"0x6f8f9548","returntype":"uint","params":[],"name":"__abstract_cw","paramcount":0,"ASM":"XOR EAX,EAX\nTEST BL,0x1\n","jumpback":"0x6f8f954d"},{"address":"0x6f8f95da","returntype":"uint","params":[],"name":"__hw_cw","paramcount":0,"ASM":"XOR EAX,EAX\nTEST BL,0x10\n","jumpback":"0x6f8f95df"},{"address":"0x6f8f9668","returntype":"uint","params":[{"type":"uint","size":4,"name":"_NewValue","location":"Stack[0x04]","idx":0},{"type":"uint","size":4,"name":"_Mask","location":"Stack[0x08]","idx":1}],"name":"__control87","paramcount":2,"ASM":"PUSH EBP\nMOV EBP,ESP\nPUSH ECX\nPUSH EBX\n","jumpback":"0x6f8f966d"},{"address":"0x6f8f969a","returntype":"uint","params":[{"type":"uint","size":4,"name":"_NewValue","location":"Stack[0x04]","idx":0},{"type":"uint","size":4,"name":"_Mask","location":"Stack[0x08]","idx":1}],"name":"__controlfp","paramcount":2,"ASM":"MOV EAX,dword ptr [ESP + 0x8]\nAND EAX,0xfff7ffff\n","jumpback":"0x6f8f96a3"},{"address":"0x6f8f96b0","returntype":"undefined4","params":[{"type":"uint","size":4,"name":"param_1","location":"Stack[0x04]","idx":0},{"type":"uint","size":4,"name":"param_2","location":"Stack[0x08]","idx":1},{"type":"uint *","size":4,"name":"param_3","location":"Stack[0x0C]","idx":2}],"name":"___addl","paramcount":3,"ASM":"MOV EDX,dword ptr [ESP + 0x4]\nPUSH ESI\n","jumpback":"0x6f8f96b5"},{"address":"0x6f8f96d1","returntype":"undefined","params":[{"type":"uint *","size":4,"name":"param_1","location":"Stack[0x04]","idx":0},{"type":"uint *","size":4,"name":"param_2","location":"Stack[0x08]","idx":1}],"name":"___add_12","paramcount":2,"ASM":"PUSH ESI\nMOV ESI,dword ptr [ESP + 0x8]\n","jumpback":"0x6f8f96d6"},{"address":"0x6f8f972f","returntype":"undefined","params":[{"type":"uint *","size":4,"name":"param_1","location":"Stack[0x04]","idx":0}],"name":"___shl_12","paramcount":1,"ASM":"MOV EAX,dword ptr [ESP + 0x4]\nPUSH ESI\n","jumpback":"0x6f8f9734"},{"address":"0x6f8f975d","returntype":"undefined","params":[{"type":"uint *","size":4,"name":"param_1","location":"Stack[0x04]","idx":0}],"name":"___shr_12","paramcount":1,"ASM":"MOV EAX,dword ptr [ESP + 0x4]\nMOV EDX,dword ptr [EAX + 0x8]\n","jumpback":"0x6f8f9764"},{"address":"0x6f8f978a","returntype":"void","params":[{"type":"char *","size":4,"name":"pDigitBuffer","location":"Stack[0x04]","idx":0},{"type":"int","size":4,"name":"digitCount","location":"Stack[0x08]","idx":1},{"type":"uint *","size":4,"name":"pOutput","location":"Stack[0x0C]","idx":2}],"name":"ConvertDigitBufferToExtended80","paramcount":3,"ASM":"PUSH EBP\nMOV EBP,ESP\nSUB ESP,0x1c\n","jumpback":"0x6f8f9790"},{"address":"0x6f8f9872","returntype":"void","params":[{"type":"ExtendedFloat80 *","size":4,"name":"pOutput","location":"Stack[0x04]","idx":0},{"type":"byte * *","size":4,"name":"ppEndPtr","location":"Stack[0x08]","idx":1},{"type":"byte *","size":4,"name":"pInputString","location":"Stack[0x0C]","idx":2},{"type":"int","size":4,"name":"formatPrecision","location":"Stack[0x10]","idx":3},{"type":"int","size":4,"name":"positiveExponentBias","location":"Stack[0x14]","idx":4},{"type":"int","size":4,"name":"negativeExponentBias","location":"Stack[0x18]","idx":5},{"type":"int","size":4,"name":"allowExponent","location":"Stack[0x1C]","idx":6}],"name":"ParseFloatStringToExtended80","paramcount":7,"ASM":"PUSH EBP\nMOV EBP,ESP\nSUB ESP,0x64\n","jumpback":"0x6f8f9878"},{"address":"0x6f8f9cb2","returntype":"void","params":[{"type":"uint","size":4,"name":"mantissaLow","location":"Stack[0x04]","idx":0},{"type":"uint","size":4,"name":"mantissaHigh","location":"Stack[0x08]","idx":1},{"type":"ushort","size":2,"name":"exponentAndSign","location":"Stack[0x0C]","idx":2},{"type":"int","size":4,"name":"precision","location":"Stack[0x10]","idx":3},{"type":"byte","size":1,"name":"flags","location":"Stack[0x14]","idx":4},{"type":"FormattedFloatOutput *","size":4,"name":"pOutput","location":"Stack[0x18]","idx":5}],"name":"ConvertFloat80ToScientificNotation","paramcount":6,"ASM":"PUSH EBP\nMOV EBP,ESP\nSUB ESP,0x34\n","jumpback":"0x6f8f9cb8"},{"address":"0x6f8f9f4e","returntype":"void","params":[{"type":"ExtendedFloat80 *","size":4,"name":"pResult","location":"Stack[0x04]","idx":0},{"type":"ExtendedFloat80 *","size":4,"name":"pMultiplicand","location":"Stack[0x08]","idx":1}],"name":"MultiplyExtendedPrecisionFloats","paramcount":2,"ASM":"PUSH EBP\nMOV EBP,ESP\nSUB ESP,0x30\n","jumpback":"0x6f8f9f54"},{"address":"0x6f8fa184","returntype":"void","params":[{"type":"WCHAR *","size":4,"name":"pOutputBuffer","location":"Stack[0x04]","idx":0},{"type":"uint","size":4,"name":"nValue","location":"Stack[0x08]","idx":1},{"type":"int","size":4,"name":"bAppendMode","location":"Stack[0x0C]","idx":2}],"name":"ConvertNumberToWideString","paramcount":3,"ASM":"PUSH EBP\nMOV EBP,ESP\nSUB ESP,0x14\n","jumpback":"0x6f8fa18a"},{"address":"0x6f8fa220","returntype":"void","params":[],"name":"InitializeAndDestroyObjectArray","paramcount":0,"ASM":"PUSH ESI\nPUSH EDI\nMOV ESI,0x6f9a9e58\n","jumpback":"0x6f8fa227"},{"address":"0x6f8fa250","returntype":"undefined","params":[],"name":"FUN_6f8fa250","paramcount":0,"ASM":"PUSH ESI\nPUSH EDI\nMOV ESI,0x6f9aa670\n","jumpback":"0x6f8fa257"},{"address":"0x6f8fa280","returntype":"void","params":[],"name":"InitializeUnicodeArray","paramcount":0,"ASM":"PUSH ESI\nPUSH EDI\nMOV ESI,0x6f9aa66c\n","jumpback":"0x6f8fa287"},{"address":"0x6f8fa2a1","returntype":"undefined","params":[{"type":"int","size":4,"name":"param_1","location":"ECX","idx":0},{"type":"byte *","size":4,"name":"param_2","location":"EDX","idx":1},{"type":"uint","size":4,"name":"param_3","location":"Stack[0x04]","idx":2}],"name":"FUN_6f8fa2a1","paramcount":3,"ASM":"ADD byte ptr [EAX],AL\nADD byte ptr [EAX],AL\nADD byte ptr [EAX],AL\n","jumpback":"0x6f8fa2a7"}]